$GPGGA,150601.00,4503.91798,N,00739.54021,E,1,08,1.17,276.4,M,47.2,M,,*55
$GPGSA,A,3,21,02,03,16,07,08,11,12,,,,,1.98,1.17,1.60*0B
$GPGSV,2,1,08,02,10,322,47,03,55,225,47,07,60,307,47,08,27,111,47*7D
$GPGSV,2,2,08,11,36,254,47,12,50,056,47,16,61,116,47,21,11,055,47*77
$GPGLL,4503.91798,N,00739.54021,E,150601.00,A,A*69
$GPGRS,150601.00,1,0.2,-0.7,-0.3,-0.3,-0.3,-0.2,0.8,0.3,,,,*6F
$GPGST,150601.00,4.5,,,,1.1,0.64,1.7*4F
$GPZDA,150601.00,20,05,2014,00,00*65
$GPGBS,150601.00,1.1,0.6,1.7,,,,*42
$PUBX,00,150601.00,4503.91798,N,00739.54021,E,323.683,G3,1.2,1.7,0.018,0.00,-0.016,,1.17,1.60,1.08,8,0,0*48
$PUBX,03,08,2,U,322,10,47,061,3,U,225,55,47,061,7,U,307,60,47,061,8,U,111,27,47,060,11,U,254,36,47,060,12,U,056,50,47,061,16,U,116,61,47,060,21,U,055,11,47,060*1D
$PUBX,04,150601.00,200514,227161.00,1793,15D,-992419,-21.478,21*60
$GPDTM,W84,,0.0,N,0.0,E,0.0,W84*6F
$GPRMC,150602.00,A,4503.91798,N,00739.54021,E,0.025,,200514,,,A*76
$GPVTG,,T,,M,0.025,N,0.046,K,A*26
$GPGGA,150602.00,4503.91798,N,00739.54021,E,1,08,1.17,276.4,M,47.2,M,,*56
$GPGSA,A,3,21,02,03,16,07,08,11,12,,,,,1.98,1.17,1.60*0B
$GPGSV,2,1,08,02,10,322,47,03,55,225,47,07,60,307,47,08,27,111,47*7D
$GPGSV,2,2,08,11,36,254,47,12,50,056,47,16,61,116,47,21,11,055,47*77
$GPGLL,4503.91798,N,00739.54021,E,150602.00,A,A*6A
$GPGRS,150602.00,1,0.6,-0.7,-0.5,-0.2,0.1,-0.1,0.8,0.2,,,,*42
$GPGST,150602.00,4.5,,,,1.0,0.63,1.7*4A
$GPZDA,150602.00,20,05,2014,00,00*66
$GPGBS,150602.00,1.0,0.6,1.7,,,,*40
$PUBX,00,150602.00,4503.91798,N,00739.54021,E,323.674,G3,1.2,1.7,0.046,0.00,-0.021,,1.17,1.60,1.08,8,0,0*4C
$PUBX,03,08,2,U,322,10,47,062,3,U,225,55,47,062,7,U,307,60,47,062,8,U,111,27,47,061,11,U,254,36,47,061,12,U,056,50,47,062,16,U,116,61,47,061,21,U,055,11,47,061*1D
$PUBX,04,150602.00,200514,227162.00,1793,15D,-992441,-21.749,21*6C
$GPDTM,W84,,0.0,N,0.0,E,0.0,W84*6F
$GPRMC,150603.00,A,4503.91798,N,00739.54021,E,0.011,,200514,,,A*70
$GPVTG,,T,,M,0.011,N,0.021,K,A*20
$GPGGA,150603.00,4503.91798,N,00739.54021,E,1,08,1.17,276.4,M,47.2,M,,*57
$GPGSA,A,3,21,02,03,16,07,08,11,12,,,,,1.98,1.17,1.60*0B
$GPGSV,2,1,08,02,10,322,47,03,55,225,47,07,60,307,47,08,27,111,47*7D
$GPGSV,2,2,08,11,36,254,47,12,50,056,47,16,61,116,47,21,11,055,47*77
$GPGLL,4503.91798,N,00739.54021,E,150603.00,A,A*6B
$GPGRS,150603.00,1,-0.2,-0.4,-0.2,-0.4,-0.7,-0.1,0.5,0.3,,,,*4F
$GPGST,150603.00,4.5,,,,1.0,0.62,1.7*4A
$GPZDA,150603.00,20,05,2014,00,00*67
$GPGBS,150603.00,1.0,0.6,1.7,,,,*41
$PUBX,00,150603.00,4503.91798,N,00739.54021,E,323.655,G3,1.2,1.7,0.021,0.00,-0.012,,1.17,1.60,1.08,8,0,0*4F
$PUBX,03,08,2,U,322,10,47,063,3,U,225,55,47,063,7,U,307,60,47,063,8,U,111,27,47,062,11,U,254,36,47,062,12,U,056,50,47,063,16,U,116,61,47,062,21,U,055,11,47,062*1D
$PUBX,04,150603.00,200514,227163.00,1793,15D,-992462,-21.848,21*63
$GPDTM,W84,,0.0,N,0.0,E,0.0,W84*6F
$GPRMC,150604.00,A,4503.91797,N,00739.54021,E,0.003,,200514,,,A*7B
$GPVTG,,T,,M,0.003,N,0.005,K,A*25
$GPGGA,150604.00,4503.91797,N,00739.54021,E,1,08,1.17,276.4,M,47.2,M,,*5F
$GPGSA,A,3,21,02,03,16,07,08,11,12,,,,,1.98,1.17,1.60*0B
$GPGSV,2,1,08,02,10,322,47,03,55,225,47,07,60,307,47,08,27,111,47*7D
$GPGSV,2,2,08,11,36,254,47,12,50,056,47,16,61,116,47,21,11,055,47*77
$GPGLL,4503.91797,N,00739.54021,E,150604.00,A,A*63
$GPGRS,150604.00,1,0.2,-0.7,-0.3,0.0,-0.3,-0.3,0.5,-0.2,,,,*64
$GPGST,150604.00,4.5,,,,1.0,0.62,1.7*4D
$GPZDA,150604.00,20,05,2014,00,00*60
$GPGBS,150604.00,1.0,0.6,1.7,,,,*46
$PUBX,00,150604.00,4503.91797,N,00739.54021,E,323.646,G3,1.2,1.7,0.005,0.00,-0.004,,1.17,1.60,1.08,8,0,0*44
$PUBX,03,08,2,U,322,10,47,064,3,U,225,55,47,064,7,U,307,60,47,064,8,U,111,27,47,063,11,U,254,36,47,063,12,U,056,50,47,064,16,U,116,61,47,063,21,U,055,11,47,063*1D
$PUBX,04,150604.00,200514,227164.00,1793,15D,-992484,-21.869,21*68
$GPDTM,W84,,0.0,N,0.0,E,0.0,W84*6F
$GPRMC,150605.00,A,4503.91797,N,00739.54021,E,0.006,,200514,,,A*7F
$GPVTG,,T,,M,0.006,N,0.012,K,A*26
$GPGGA,150605.00,4503.91797,N,00739.54021,E,1,08,1.17,276.4,M,47.2,M,,*5E
$GPGSA,A,3,21,02,03,16,07,08,11,12,,,,,1.98,1.17,1.60*0B
$GPGSV,2,1,08,02,10,322,47,03,55,225,47,07,60,307,47,08,27,111,47*7D
$GPGSV,2,2,08,11,36,254,47,12,50,056,47,16,61,116,47,21,11,055,47*77
$GPGLL,4503.91797,N,00739.54021,E,150605.00,A,A*62
$GPGRS,150605.00,1,0.2,-0.4,-0.3,0.1,-0.3,-0.2,0.7,0.3,,,,*48
$GPGST,150605.00,4.5,,,,1.0,0.61,1.7*4F
$GPZDA,150605.00,20,05,2014,00,00*61
$GPGBS,150605.00,1.0,0.6,1.7,,,,*47
$PUBX,00,150605.00,4503.91797,N,00739.54021,E,323.634,G3,1.2,1.7,0.012,0.00,-0.008,,1.17,1.60,1.08,8,0,0*4A
$PUBX,03,08,2,U,322,10,47,064,3,U,225,55,47,064,7,U,307,60,47,064,8,U,111,27,47,064,11,U,254,36,47,064,12,U,056,50,47,064,16,U,116,61,47,064,21,U,055,11,47,064*1D
$PUBX,04,150605.00,200514,227165.00,1793,15D,-992506,-22.064,21*65
$GPDTM,W84,,0.0,N,0.0,E,0.0,W84*6F
$GPRMC,150606.00,A,4503.91797,N,00739.54021,E,0.029,,200514,,,A*71
$GPVTG,,T,,M,0.029,N,0.054,K,A*29
$GPGGA,150606.00,4503.91797,N,00739.54021,E,1,08,1.17,276.4,M,47.2,M,,*5D
$GPGSA,A,3,21,02,03,16,07,08,11,12,,,,,1.98,1.17,1.60*0B
$GPGSV,2,1,08,02,10,322,47,03,55,225,47,07,60,307,47,08,27,111,47*7D
$GPGSV,2,2,08,11,36,254,47,12,50,056,47,16,61,116,47,21,11,055,47*77
$GPGLL,4503.91797,N,00739.54021,E,150606.00,A,A*61
$GPGRS,150606.00,1,0.2,-0.5,-0.3,-0.1,-0.3,-0.1,0.7,0.3,,,,*64
$GPGST,150606.00,4.5,,,,1.0,0.61,1.6*4D
$GPZDA,150606.00,20,05,2014,00,00*62
$GPGBS,150606.00,1.0,0.6,1.6,,,,*45
$PUBX,00,150606.00,4503.91797,N,00739.54021,E,323.621,G3,1.2,1.6,0.054,0.00,-0.024,,1.17,1.60,1.08,8,0,0*40
$PUBX,03,08,2,U,322,10,47,064,3,U,225,55,47,064,7,U,307,60,47,064,8,U,111,27,47,064,11,U,254,36,47,064,12,U,056,50,47,064,16,U,116,61,47,064,21,U,055,11,47,064*1D
$PUBX,04,150606.00,200514,227166.00,1793,15D,-992529,-22.430,21*6D
$GPDTM,W84,,0.0,N,0.0,E,0.0,W84*6F
$GPRMC,150607.00,A,4503.91796,N,00739.54021,E,0.020,,200514,,,A*78
$GPVTG,,T,,M,0.020,N,0.037,K,A*25
$GPGGA,150607.00,4503.91796,N,00739.54021,E,1,08,1.17,276.4,M,47.2,M,,*5D
$GPGSA,A,3,21,02,03,16,07,08,11,12,,,,,1.98,1.17,1.60*0B
$GPGSV,2,1,08,02,10,322,47,03,55,225,47,07,60,307,47,08,27,111,47*7D
$GPGSV,2,2,08,11,36,254,47,12,50,056,47,16,61,116,47,21,11,055,47*77
$GPGLL,4503.91796,N,00739.54021,E,150607.00,A,A*61
$GPGRS,150607.00,1,0.0,-0.6,-0.1,-0.2,-0.3,0.0,0.6,0.4,,,,*4F
$GPGST,150607.00,4.5,,,,1.0,0.60,1.6*4D
$GPZDA,150607.00,20,05,2014,00,00*63
$GPGBS,150607.00,1.0,0.6,1.6,,,,*44
$PUBX,00,150607.00,4503.91796,N,00739.54021,E,323.615,G3,1.2,1.6,0.037,0.00,-0.018,,1.17,1.60,1.08,8,0,0*4D
$PUBX,03,08,2,U,322,10,47,064,3,U,225,55,47,064,7,U,307,60,47,064,8,U,111,27,47,064,11,U,254,36,47,064,12,U,056,50,47,064,16,U,116,61,47,064,21,U,055,11,47,064*1D
$PUBX,04,150607.00,200514,227167.00,1793,15D,-992551,-22.653,21*65
$GPDTM,W84,,0.0,N,0.0,E,0.0,W84*6F
$GPRMC,150608.00,A,4503.91796,N,00739.54022,E,0.012,,200514,,,A*75
$GPVTG,,T,,M,0.012,N,0.022,K,A*20
$GPGGA,150608.00,4503.91796,N,00739.54022,E,1,08,1.17,276.4,M,47.2,M,,*51
$GPGSA,A,3,21,02,03,16,07,08,11,12,,,,,1.98,1.17,1.60*0B
$GPGSV,2,1,08,02,10,322,47,03,55,225,47,07,60,307,47,08,27,111,47*7D
$GPGSV,2,2,08,11,36,254,47,12,50,056,47,16,61,116,47,21,11,055,47*77
$GPGLL,4503.91796,N,00739.54022,E,150608.00,A,A*6D
$GPGRS,150608.00,1,0.0,-0.6,-0.3,-0.2,-0.3,0.1,0.7,0.5,,,,*43
$GPGST,150608.00,4.5,,,,1.0,0.59,1.6*48
$GPZDA,150608.00,20,05,2014,00,00*6C
$GPGBS,150608.00,1.0,0.6,1.6,,,,*4B
$PUBX,00,150608.00,4503.91796,N,00739.54022,E,323.604,G3,1.2,1.6,0.022,0.00,-0.012,,1.17,1.60,1.08,8,0,0*4F
$PUBX,03,08,2,U,322,10,47,064,3,U,225,55,47,064,7,U,307,60,47,064,8,U,111,27,47,064,11,U,254,36,47,064,12,U,056,50,47,064,16,U,116,61,47,064,21,U,055,11,47,064*1D
$PUBX,04,150608.00,200514,227168.00,1793,15D,-992574,-22.796,21*6A
$GPDTM,W84,,0.0,N,0.0,E,0.0,W84*6F
$GPRMC,150609.00,A,4503.91796,N,00739.54022,E,0.008,,200514,,,A*7F
$GPVTG,,T,,M,0.008,N,0.015,K,A*2F
$GPGGA,150609.00,4503.91796,N,00739.54022,E,1,08,1.17,276.4,M,47.2,M,,*50
$GPGSA,A,3,21,02,03,16,07,08,11,12,,,,,1.98,1.17,1.60*0B
$GPGSV,2,1,08,02,10,322,47,03,55,225,47,07,60,307,47,08,27,111,47*7D
$GPGSV,2,2,08,11,36,254,47,12,50,056,47,16,61,116,47,21,11,055,47*77
$GPGLL,4503.91796,N,00739.54022,E,150609.00,A,A*6C
$GPGRS,150609.00,1,0.0,-0.5,-0.1,0.2,0.0,-0.2,0.4,0.3,,,,*6B
$GPGST,150609.00,4.5,,,,0.98,0.59,1.6*79
$GPZDA,150609.00,20,05,2014,00,00*6D
$GPGBS,150609.00,1.0,0.6,1.6,,,,*4A
$PUBX,00,150609.00,4503.91796,N,00739.54022,E,323.625,G3,1.1,1.6,0.015,0.00,-0.012,,1.17,1.60,1.08,8,0,0*4A
$PUBX,03,08,2,U,322,10,47,064,3,U,225,55,47,064,7,U,307,60,47,064,8,U,111,27,47,064,11,U,254,36,47,064,12,U,056,50,47,064,16,U,116,61,47,064,21,U,055,11,47,064*1D
$PUBX,04,150609.00,200514,227169.00,1793,15D,-992597,-22.866,21*67
$GPDTM,W84,,0.0,N,0.0,E,0.0,W84*6F
$GPRMC,150610.00,A,4503.91796,N,00739.54022,E,0.008,,200514,,,A*77
$GPVTG,,T,,M,0.008,N,0.016,K,A*2C
$GPGGA,150610.00,4503.91796,N,00739.54022,E,1,08,1.17,276.4,M,47.2,M,,*58
$GPGSA,A,3,21,02,03,16,07,08,11,12,,,,,1.98,1.17,1.60*0B
$GPGSV,2,1,08,02,10,322,47,03,55,225,47,07,60,307,47,08,27,111,47*7D
$GPGSV,2,2,08,11,36,254,47,12,50,056,47,16,61,116,47,21,11,055,47*77
$GPGLL,4503.91796,N,00739.54022,E,150610.00,A,A*64
$GPGRS,150610.00,1,0.0,-0.9,0.1,-0.2,-0.5,-0.4,0.4,0.8,,,,*4A
$GPGST,150610.00,4.5,,,,0.98,0.59,1.6*71
$GPZDA,150610.00,20,05,2014,00,00*65
$GPGBS,150610.00,1.0,0.6,1.6,,,,*42
$PUBX,00,150610.00,4503.91796,N,00739.54022,E,323.647,G3,1.1,1.6,0.016,0.00,-0.017,,1.17,1.60,1.08,8,0,0*40
$PUBX,03,08,2,U,322,10,47,064,3,U,225,55,47,064,7,U,307,60,47,064,8,U,111,27,47,064,11,U,254,36,47,064,12,U,056,50,47,064,16,U,116,61,47,064,21,U,055,11,47,064*1D
$PUBX,04,150610.00,200514,227170.00,1793,15D,-992620,-22.987,21*66
$GPDTM,W84,,0.0,N,0.0,E,0.0,W84*6F
$GPRMC,150611.00,A,4503.91796,N,00739.54022,E,0.015,,200514,,,A*7A
$GPVTG,,T,,M,0.015,N,0.028,K,A*2D
$GPGGA,150611.00,4503.91796,N,00739.54022,E,1,08,1.17,276.4,M,47.2,M,,*59
$GPGSA,A,3,21,02,03,16,07,08,11,12,,,,,1.98,1.17,1.60*0B
$GPGSV,2,1,08,02,10,322,47,03,55,225,47,07,60,307,47,08,27,111,47*7D
$GPGSV,2,2,08,11,36,254,47,12,50,056,47,16,61,116,47,21,11,055,47*77
$GPGLL,4503.91796,N,00739.54022,E,150611.00,A,A*65
$GPGRS,150611.00,1,0.0,-0.9,-0.1,-0.2,-0.3,-0.4,0.5,0.3,,,,*6A
$GPGST,150611.00,4.5,,,,0.97,0.58,1.6*7E
$GPZDA,150611.00,20,05,2014,00,00*64
$GPGBS,150611.00,1.0,0.6,1.6,,,,*43
$PUBX,00,150611.00,4503.91796,N,00739.54022,E,323.665,G3,1.1,1.6,0.028,0.00,-0.016,,1.17,1.60,1.08,8,0,0*4D
$PUBX,03,08,2,U,322,10,47,064,3,U,225,55,47,064,7,U,307,60,47,064,8,U,111,27,47,064,11,U,254,36,47,064,12,U,056,50,47,064,16,U,116,61,47,064,21,U,055,11,47,064*1D
$PUBX,04,150611.00,200514,227171.00,1793,15D,-992643,-23.058,21*69
$GPDTM,W84,,0.0,N,0.0,E,0.0,W84*6F
$GPRMC,150612.00,A,4503.91796,N,00739.54022,E,0.016,,200514,,,A*7A
$GPVTG,,T,,M,0.016,N,0.029,K,A*2F
$GPGGA,150612.00,4503.91796,N,00739.54022,E,1,08,1.17,276.4,M,47.2,M,,*5A
$GPGSA,A,3,21,02,03,16,07,08,11,12,,,,,1.98,1.17,1.60*0B
$GPGSV,2,1,08,02,10,322,47,03,55,225,47,07,60,307,47,08,27,111,47*7D
$GPGSV,2,2,08,11,36,254,47,12,50,056,47,16,61,116,47,21,11,055,47*77
$GPGLL,4503.91796,N,00739.54022,E,150612.00,A,A*66
$GPGRS,150612.00,1,0.1,-0.6,-0.1,-0.4,-0.2,-0.4,0.5,0.3,,,,*60
$GPGST,150612.00,4.5,,,,0.97,0.58,1.6*7D
$GPZDA,150612.00,20,05,2014,00,00*67
$GPGBS,150612.00,1.0,0.6,1.6,,,,*40
$PUBX,00,150612.00,4503.91796,N,00739.54022,E,323.667,G3,1.1,1.6,0.029,0.00,-0.017,,1.17,1.60,1.08,8,0,0*4C
$PUBX,03,08,2,U,322,10,47,064,3,U,225,55,47,064,7,U,307,60,47,064,8,U,111,27,47,064,11,U,254,36,47,064,12,U,056,50,47,064,16,U,116,61,47,064,21,U,055,11,47,064*1D
$PUBX,04,150612.00,200514,227172.00,1793,15D,-992666,-23.270,21*66
$GPDTM,W84,,0.0,N,0.0,E,0.0,W84*6F
$GPRMC,150613.00,A,4503.91797,N,00739.54022,E,0.020,,200514,,,A*7F
$GPVTG,,T,,M,0.020,N,0.037,K,A*25
$GPGGA,150613.00,4503.91797,N,00739.54022,E,1,08,1.17,276.4,M,47.2,M,,*5A
$GPGSA,A,3,21,02,03,16,07,08,11,12,,,,,1.98,1.17,1.60*0B
$GPGSV,2,1,08,02,10,322,47,03,55,225,47,07,60,307,47,08,27,111,47*7D
$GPGSV,2,2,08,11,36,254,47,12,50,056,47,16,61,116,47,21,11,055,47*77
$GPGLL,4503.91797,N,00739.54022,E,150613.00,A,A*66
$GPGRS,150613.00,1,0.0,-0.4,-0.6,-0.4,-0.2,-0.1,0.7,0.5,,,,*64
$GPGST,150613.00,4.5,,,,0.96,0.57,1.6*72
$GPZDA,150613.00,20,05,2014,00,00*66
$GPGBS,150613.00,1.0,0.6,1.6,,,,*41
$PUBX,00,150613.00,4503.91797,N,00739.54022,E,323.663,G3,1.1,1.6,0.037,0.00,-0.018,,1.17,1.60,1.08,8,0,0*48
$PUBX,03,08,2,U,322,10,47,064,3,U,225,55,47,064,7,U,307,60,47,064,8,U,111,27,47,064,11,U,254,36,47,064,12,U,056,50,47,064,16,U,116,61,47,064,21,U,055,11,47,064*1D
$PUBX,04,150613.00,200514,227173.00,1793,15D,-992689,-23.447,21*65
$GPDTM,W84,,0.0,N,0.0,E,0.0,W84*6F
$GPRMC,150614.00,A,4503.91797,N,00739.54022,E,0.017,,200514,,,A*7C
$GPVTG,,T,,M,0.017,N,0.032,K,A*24
$GPGGA,150614.00,4503.91797,N,00739.54022,E,1,08,1.17,276.4,M,47.2,M,,*5D
$GPGSA,A,3,21,02,03,16,07,08,11,12,,,,,1.98,1.17,1.60*0B
$GPGSV,2,1,08,02,10,322,47,03,55,225,47,07,60,307,47,08,27,111,47*7D
$GPGSV,2,2,08,11,36,254,47,12,50,056,47,16,61,116,47,21,11,055,47*77
$GPGLL,4503.91797,N,00739.54022,E,150614.00,A,A*61
$GPGRS,150614.00,1,0.3,-0.7,-0.2,-0.2,-0.5,-0.1,0.4,0.1,,,,*61
$GPGST,150614.00,4.5,,,,0.95,0.57,1.6*76
$GPZDA,150614.00,20,05,2014,00,00*61
$GPGBS,150614.00,1.0,0.6,1.6,,,,*46
$PUBX,00,150614.00,4503.91797,N,00739.54022,E,323.652,G3,1.1,1.6,0.032,0.00,-0.018,,1.17,1.60,1.08,8,0,0*48
$PUBX,03,08,2,U,322,10,47,064,3,U,225,55,47,064,7,U,307,60,47,064,8,U,111,27,47,064,11,U,254,36,47,064,12,U,056,50,47,064,16,U,116,61,47,064,21,U,055,11,47,064*1D
$PUBX,04,150614.00,200514,227174.00,1793,15D,-992713,-23.587,21*6A
$GPDTM,W84,,0.0,N,0.0,E,0.0,W84*6F
$GPRMC,150615.00,A,4503.91796,N,00739.54022,E,0.014,,200514,,,A*7F
$GPVTG,,T,,M,0.014,N,0.025,K,A*21
$GPGGA,150615.00,4503.91796,N,00739.54022,E,1,08,1.17,276.4,M,47.2,M,,*5D
$GPGSA,A,3,21,02,03,16,07,08,11,12,,,,,1.98,1.17,1.60*0B
$GPGSV,2,1,08,02,10,322,47,03,55,225,47,07,60,307,47,08,27,111,47*7D
$GPGSV,2,2,08,11,36,254,47,12,50,056,47,16,61,116,47,21,11,055,47*77
$GPGLL,4503.91796,N,00739.54022,E,150615.00,A,A*61
$GPGRS,150615.00,1,0.1,-0.7,0.1,0.0,0.0,-0.1,0.3,0.0,,,,*4D
$GPGST,150615.00,4.5,,,,0.95,0.57,1.6*77
$GPZDA,150615.00,20,05,2014,00,00*60
$GPGBS,150615.00,0.9,0.6,1.6,,,,*4F
$PUBX,00,150615.00,4503.91796,N,00739.54022,E,323.661,G3,1.1,1.6,0.025,0.00,-0.014,,1.17,1.60,1.08,8,0,0*42
$PUBX,03,08,2,U,322,10,47,064,3,U,225,55,47,064,7,U,307,60,47,064,8,U,111,27,47,064,11,U,254,36,47,064,12,U,056,50,47,064,16,U,116,61,47,064,21,U,055,11,47,064*1D
$PUBX,04,150615.00,200514,227175.00,1793,15D,-992737,-23.685,21*6D
$GPDTM,W84,,0.0,N,0.0,E,0.0,W84*6F
$GPRMC,150616.00,A,4503.91797,N,00739.54022,E,0.016,,200514,,,A*7F
$GPVTG,,T,,M,0.016,N,0.030,K,A*27
$GPGGA,150616.00,4503.91797,N,00739.54022,E,1,08,1.17,276.4,M,47.2,M,,*5F
$GPGSA,A,3,21,02,03,16,07,08,11,12,,,,,1.98,1.17,1.60*0B
$GPGSV,2,1,08,02,10,322,47,03,55,225,47,07,60,307,47,08,27,111,47*7D
$GPGSV,2,2,08,11,36,254,47,12,50,056,47,16,61,116,47,21,11,055,47*77
$GPGLL,4503.91797,N,00739.54022,E,150616.00,A,A*63
$GPGRS,150616.00,1,-0.2,-0.7,-0.1,-0.2,0.2,-0.2,0.5,0.2,,,,*67
$GPGST,150616.00,4.5,,,,0.95,0.57,1.5*77
$GPZDA,150616.00,20,05,2014,00,00*63
$GPGBS,150616.00,0.9,0.6,1.5,,,,*4F
$PUBX,00,150616.00,4503.91797,N,00739.54022,E,323.677,G3,1.1,1.5,0.030,0.00,-0.012,,1.17,1.60,1.08,8,0,0*46
$PUBX,03,08,2,U,322,10,47,064,3,U,225,55,47,064,7,U,307,60,47,064,8,U,111,27,47,064,11,U,254,36,47,064,12,U,056,50,47,064,16,U,116,61,47,064,21,U,055,11,47,064*1D
$PUBX,04,150616.00,200514,227176.00,1793,15D,-992760,-23.844,21*6C
$GPDTM,W84,,0.0,N,0.0,E,0.0,W84*6F
$GPRMC,150617.00,A,4503.91797,N,00739.54021,E,0.010,,200514,,,A*7B
$GPVTG,,T,,M,0.010,N,0.018,K,A*2B
$GPGGA,150617.00,4503.91797,N,00739.54021,E,1,08,1.17,276.4,M,47.2,M,,*5D
$GPGSA,A,3,21,02,03,16,07,08,11,12,,,,,1.98,1.17,1.60*0B
$GPGSV,2,1,08,02,10,322,47,03,55,225,47,07,60,307,47,08,27,111,47*7D
$GPGSV,2,2,08,11,36,254,47,12,50,056,47,16,61,116,47,21,11,055,47*77
$GPGLL,4503.91797,N,00739.54021,E,150617.00,A,A*61
$GPGRS,150617.00,1,0.0,-0.8,0.0,-0.5,0.0,-0.3,0.7,0.4,,,,*6A
$GPGST,150617.00,4.5,,,,0.94,0.56,1.5*76
$GPZDA,150617.00,20,05,2014,00,00*62
$GPGBS,150617.00,0.9,0.6,1.5,,,,*4E
$PUBX,00,150617.00,4503.91797,N,00739.54021,E,323.685,G3,1.1,1.5,0.018,0.00,-0.011,,1.17,1.60,1.08,8,0,0*40
$PUBX,03,08,2,U,322,10,47,064,3,U,225,55,47,064,7,U,307,60,47,064,8,U,111,27,47,064,11,U,254,36,47,064,12,U,056,50,47,064,16,U,116,61,47,064,21,U,055,11,47,064*1D
$PUBX,04,150617.00,200514,227177.00,1793,15D,-992784,-23.970,21*60
$GPDTM,W84,,0.0,N,0.0,E,0.0,W84*6F
$GPRMC,150618.00,A,4503.91797,N,00739.54021,E,0.013,,200514,,,A*77
$GPVTG,,T,,M,0.013,N,0.023,K,A*20
$GPGGA,150618.00,4503.91797,N,00739.54021,E,1,08,1.17,276.5,M,47.2,M,,*53
$GPGSA,A,3,21,02,03,16,07,08,11,12,,,,,1.98,1.17,1.60*0B
$GPGSV,2,1,08,02,10,322,47,03,55,225,47,07,60,307,47,08,27,111,47*7D
$GPGSV,2,2,08,11,36,254,47,12,50,056,47,16,61,116,47,21,11,055,47*77
$GPGLL,4503.91797,N,00739.54021,E,150618.00,A,A*6E
$GPGRS,150618.00,1,0.1,-1.2,0.3,-0.7,-0.2,0.0,0.4,0.6,,,,*6E
$GPGST,150618.00,4.5,,,,0.94,0.56,1.5*79
$GPZDA,150618.00,20,05,2014,00,00*6D
$GPGBS,150618.00,0.9,0.6,1.5,,,,*41
$PUBX,00,150618.00,4503.91797,N,00739.54021,E,323.689,G3,1.1,1.5,0.023,0.00,-0.010,,1.17,1.60,1.08,8,0,0*4A
$PUBX,03,08,2,U,322,10,47,064,3,U,225,55,47,064,7,U,307,60,47,064,8,U,111,27,47,064,11,U,254,36,47,064,12,U,056,50,47,064,16,U,116,61,47,064,21,U,055,11,47,064*1D
$PUBX,04,150618.00,200514,227178.00,1793,15D,-992808,-24.036,21*67
$GPDTM,W84,,0.0,N,0.0,E,0.0,W84*6F
$GPRMC,150619.00,A,4503.91797,N,00739.54021,E,0.028,,200514,,,A*7E
$GPVTG,,T,,M,0.028,N,0.051,K,A*2D
$GPGGA,150619.00,4503.91797,N,00739.54021,E,1,08,1.17,276.5,M,47.2,M,,*52
$GPGSA,A,3,21,02,03,16,07,08,11,12,,,,,1.98,1.17,1.60*0B
$GPGSV,2,1,08,02,10,322,47,03,55,225,47,07,60,307,47,08,27,111,47*7D
$GPGSV,2,2,08,11,36,254,47,12,50,056,47,16,61,116,47,21,11,055,47*77
$GPGLL,4503.91797,N,00739.54021,E,150619.00,A,A*6F
$GPGRS,150619.00,1,0.3,-0.7,0.3,-0.2,0.0,-0.4,0.3,0.0,,,,*6B
$GPGST,150619.00,4.5,,,,0.93,0.56,1.5*7F
$GPZDA,150619.00,20,05,2014,00,00*6C
$GPGBS,150619.00,0.9,0.6,1.5,,,,*40
$PUBX,00,150619.00,4503.91797,N,00739.54021,E,323.702,G3,1.1,1.5,0.051,0.00,-0.025,,1.17,1.60,1.08,8,0,0*4A
$PUBX,03,08,2,U,322,10,47,064,3,U,225,55,47,064,7,U,307,60,47,064,8,U,111,27,47,064,11,U,254,36,47,064,12,U,056,50,47,064,16,U,116,61,47,064,21,U,055,11,47,064*1D
$PUBX,04,150619.00,200514,227179.00,1793,15D,-992833,-24.275,21*6A
$GPDTM,W84,,0.0,N,0.0,E,0.0,W84*6F
$GPRMC,150620.00,A,4503.91796,N,00739.54021,E,0.003,,200514,,,A*7C
$GPVTG,,T,,M,0.003,N,0.006,K,A*26
$GPGGA,150620.00,4503.91796,N,00739.54021,E,1,08,1.17,276.5,M,47.2,M,,*59
$GPGSA,A,3,21,02,03,16,07,08,11,12,,,,,1.98,1.17,1.60*0B
$GPGSV,2,1,08,02,10,322,47,03,55,225,47,07,60,307,47,08,27,111,47*7D
$GPGSV,2,2,08,11,36,254,47,12,50,056,47,16,61,116,47,21,11,055,47*77
$GPGLL,4503.91796,N,00739.54021,E,150620.00,A,A*64
$GPGRS,150620.00,1,0.1,-0.9,0.3,-0.2,-0.2,-0.3,0.5,0.2,,,,*41
$GPGST,150620.00,4.5,,,,0.93,0.56,1.5*75
$GPZDA,150620.00,20,05,2014,00,00*66
$GPGBS,150620.00,0.9,0.6,1.5,,,,*4A
$PUBX,00,150620.00,4503.91796,N,00739.54021,E,323.708,G3,1.1,1.5,0.006,0.00,-0.010,,1.17,1.60,1.08,8,0,0*4F
$PUBX,03,08,2,U,322,10,47,064,3,U,225,55,47,064,7,U,307,60,47,064,8,U,111,27,47,064,11,U,254,36,47,064,12,U,056,50,47,064,16,U,116,61,47,064,21,U,055,11,47,064*1D
$PUBX,04,150620.00,200514,227180.00,1793,15D,-992857,-24.400,21*60
$GPDTM,W84,,0.0,N,0.0,E,0.0,W84*6F
$GPRMC,150621.00,A,4503.91796,N,00739.54020,E,0.010,,200514,,,A*7E
$GPVTG,,T,,M,0.010,N,0.019,K,A*2A
$GPGGA,150621.00,4503.91796,N,00739.54020,E,1,08,1.17,276.5,M,47.2,M,,*59
$GPGSA,A,3,21,02,03,16,07,08,11,12,,,,,1.98,1.17,1.60*0B
$GPGSV,2,1,08,02,10,322,47,03,55,225,47,07,60,307,47,08,27,111,47*7D
$GPGSV,2,2,08,11,36,254,47,12,50,056,47,16,61,116,47,21,11,055,47*77
$GPGLL,4503.91796,N,00739.54020,E,150621.00,A,A*64
$GPGRS,150621.00,1,-0.1,-0.7,0.2,-0.4,0.0,-0.1,0.5,-0.1,,,,*67
$GPGST,150621.00,4.5,,,,0.93,0.55,1.5*77
$GPZDA,150621.00,20,05,2014,00,00*67
$GPGBS,150621.00,0.9,0.6,1.5,,,,*4B
$PUBX,00,150621.00,4503.91796,N,00739.54020,E,323.709,G3,1.1,1.5,0.019,0.00,-0.012,,1.17,1.60,1.08,8,0,0*42
$PUBX,03,08,2,U,322,10,47,064,3,U,225,55,47,064,7,U,307,60,47,064,8,U,111,27,47,064,11,U,254,36,47,064,12,U,056,50,47,064,16,U,116,61,47,064,21,U,055,11,47,064*1D
$PUBX,04,150621.00,200514,227181.00,1793,15D,-992881,-24.508,21*62
$GPDTM,W84,,0.0,N,0.0,E,0.0,W84*6F
$GPRMC,150622.00,A,4503.91796,N,00739.54020,E,0.011,,200514,,,A*7C
$GPVTG,,T,,M,0.011,N,0.019,K,A*2B
$GPGGA,150622.00,4503.91796,N,00739.54020,E,1,08,1.17,276.5,M,47.2,M,,*5A
$GPGSA,A,3,21,02,03,16,07,08,11,12,,,,,1.98,1.17,1.60*0B
$GPGSV,2,1,08,02,10,322,47,03,55,225,47,07,60,307,47,08,27,111,47*7D
$GPGSV,2,2,08,11,36,254,47,12,50,056,47,16,61,116,47,21,11,055,47*77
$GPGLL,4503.91796,N,00739.54020,E,150622.00,A,A*67
$GPGRS,150622.00,1,0.4,-0.7,-0.2,-0.4,0.1,0.0,0.7,0.2,,,,*60
$GPGST,150622.00,4.5,,,,0.92,0.55,1.5*75
$GPZDA,150622.00,20,05,2014,00,00*64
$GPGBS,150622.00,0.9,0.6,1.5,,,,*48
$PUBX,00,150622.00,4503.91796,N,00739.54020,E,323.707,G3,1.1,1.5,0.019,0.00,-0.014,,1.17,1.60,1.08,8,0,0*49
$PUBX,03,08,2,U,322,10,47,064,3,U,225,55,47,064,7,U,307,60,47,064,8,U,111,27,47,064,11,U,254,36,47,064,12,U,056,50,47,064,16,U,116,61,47,064,21,U,055,11,47,064*1D
$PUBX,04,150622.00,200514,227182.00,1793,15D,-992906,-24.602,21*65
$GPDTM,W84,,0.0,N,0.0,E,0.0,W84*6F
$GPRMC,150623.00,A,4503.91796,N,00739.54020,E,0.004,,200514,,,A*79
$GPVTG,,T,,M,0.004,N,0.007,K,A*20
$GPGGA,150623.00,4503.91796,N,00739.54020,E,1,08,1.17,276.5,M,47.2,M,,*5B
$GPGSA,A,3,21,02,03,16,07,08,11,12,,,,,1.98,1.17,1.60*0B
$GPGSV,2,1,08,02,10,322,47,03,55,225,47,07,60,307,47,08,27,111,47*7D
$GPGSV,2,2,08,11,36,254,47,12,50,056,47,16,61,116,47,21,11,055,47*77
$GPGLL,4503.91796,N,00739.54020,E,150623.00,A,A*66
$GPGRS,150623.00,1,0.4,-0.7,0.2,-0.5,-0.2,-0.2,0.6,0.9,,,,*46
$GPGST,150623.00,4.5,,,,0.92,0.55,1.5*74
$GPZDA,150623.00,20,05,2014,00,00*65
$GPGBS,150623.00,0.9,0.6,1.5,,,,*49
$PUBX,00,150623.00,4503.91796,N,00739.54020,E,323.709,G3,1.1,1.5,0.007,0.00,-0.013,,1.17,1.60,1.08,8,0,0*4E
$PUBX,03,08,2,U,322,10,47,064,3,U,225,55,47,064,7,U,307,60,47,064,8,U,111,27,47,064,11,U,254,36,47,064,12,U,056,50,47,064,16,U,116,61,47,064,21,U,055,11,47,064*1D
$PUBX,04,150623.00,200514,227183.00,1793,15D,-992931,-24.730,21*61
$GPDTM,W84,,0.0,N,0.0,E,0.0,W84*6F
$GPRMC,150624.00,A,4503.91796,N,00739.54020,E,0.008,,200514,,,A*72
$GPVTG,,T,,M,0.008,N,0.016,K,A*2C
$GPGGA,150624.00,4503.91796,N,00739.54020,E,1,08,1.17,276.5,M,47.2,M,,*5C
$GPGSA,A,3,21,02,03,16,07,08,11,12,,,,,1.98,1.17,1.60*0B
$GPGSV,2,1,08,02,10,322,47,03,55,225,47,07,60,307,47,08,27,111,47*7D
$GPGSV,2,2,08,11,36,254,47,12,50,056,47,16,61,116,47,21,11,055,47*77
$GPGLL,4503.91796,N,00739.54020,E,150624.00,A,A*61
$GPGRS,150624.00,1,0.0,-0.7,-0.3,-0.3,-0.2,-0.2,0.5,0.3,,,,*66
$GPGST,150624.00,4.5,,,,0.92,0.55,1.5*73
$GPZDA,150624.00,20,05,2014,00,00*62
$GPGBS,150624.00,0.9,0.5,1.5,,,,*4D
$PUBX,00,150624.00,4503.91796,N,00739.54020,E,323.705,G3,1.1,1.5,0.016,0.00,-0.008,,1.17,1.60,1.08,8,0,0*4F
$PUBX,03,08,2,U,322,10,47,064,3,U,225,55,47,064,7,U,307,60,47,064,8,U,111,27,47,064,11,U,254,36,47,064,12,U,056,50,47,064,16,U,116,61,47,064,21,U,055,11,47,064*1D
$PUBX,04,150624.00,200514,227184.00,1793,15D,-992956,-24.857,21*6E
$GPDTM,W84,,0.0,N,0.0,E,0.0,W84*6F
$GPRMC,150625.00,A,4503.91796,N,00739.54020,E,0.002,,200514,,,A*79
$GPVTG,,T,,M,0.002,N,0.003,K,A*22
$GPGGA,150625.00,4503.91796,N,00739.54020,E,1,08,1.17,276.5,M,47.2,M,,*5D
$GPGSA,A,3,21,02,03,16,07,08,11,12,,,,,1.98,1.17,1.60*0B
$GPGSV,2,1,08,02,10,322,47,03,55,225,47,07,60,307,47,08,27,111,47*7D
$GPGSV,2,2,08,11,36,254,47,12,50,056,47,16,61,116,47,21,11,055,47*77
$GPGLL,4503.91796,N,00739.54020,E,150625.00,A,A*60
$GPGRS,150625.00,1,0.0,-0.7,-0.1,-0.2,-0.2,-0.4,0.5,0.5,,,,*64
$GPGST,150625.00,4.5,,,,0.92,0.55,1.5*72
$GPZDA,150625.00,20,05,2014,00,00*63
$GPGBS,150625.00,0.9,0.5,1.5,,,,*4C
$PUBX,00,150625.00,4503.91796,N,00739.54020,E,323.719,G3,1.1,1.5,0.003,0.00,-0.004,,1.17,1.60,1.08,8,0,0*4B
$PUBX,03,08,2,U,322,10,47,064,3,U,225,55,47,064,7,U,307,60,47,064,8,U,111,27,47,064,11,U,254,36,47,064,12,U,056,50,47,064,16,U,116,61,47,064,21,U,055,11,47,064*1D
$PUBX,04,150625.00,200514,227185.00,1793,15D,-992980,-24.838,21*6C
$GPDTM,W84,,0.0,N,0.0,E,0.0,W84*6F
$GPRMC,150626.00,A,4503.91797,N,00739.54019,E,0.008,,200514,,,A*7B
$GPVTG,,T,,M,0.008,N,0.016,K,A*2C
$GPGGA,150626.00,4503.91797,N,00739.54019,E,1,08,1.17,276.5,M,47.2,M,,*55
$GPGSA,A,3,21,02,03,16,07,08,11,12,,,,,1.98,1.17,1.60*0B
$GPGSV,2,1,08,02,10,322,47,03,55,225,47,07,60,307,47,08,27,111,47*7D
$GPGSV,2,2,08,11,36,254,47,12,50,056,47,16,61,116,47,21,11,055,47*77
$GPGLL,4503.91797,N,00739.54019,E,150626.00,A,A*68
$GPGRS,150626.00,1,0.2,-0.5,-0.3,-0.5,0.0,-0.5,0.7,0.5,,,,*4E
$GPGST,150626.00,4.5,,,,0.91,0.55,1.5*72
$GPZDA,150626.00,20,05,2014,00,00*60
$GPGBS,150626.00,0.9,0.5,1.5,,,,*4F
$PUBX,00,150626.00,4503.91797,N,00739.54019,E,323.727,G3,1.1,1.5,0.016,0.00,-0.016,,1.17,1.60,1.08,8,0,0*49
$PUBX,03,08,2,U,322,10,47,064,3,U,225,55,47,064,7,U,307,60,47,064,8,U,111,27,47,064,11,U,254,36,47,064,12,U,056,50,47,064,16,U,116,61,47,064,21,U,055,11,47,064*1D
$PUBX,04,150626.00,200514,227186.00,1793,15D,-993005,-25.000,21*6B
$GPDTM,W84,,0.0,N,0.0,E,0.0,W84*6F
$GPRMC,150627.00,A,4503.91797,N,00739.54019,E,0.022,,200514,,,A*72
$GPVTG,,T,,M,0.022,N,0.040,K,A*27
$GPGGA,150627.00,4503.91797,N,00739.54019,E,1,08,1.17,276.5,M,47.2,M,,*54
$GPGSA,A,3,21,02,03,16,07,08,11,12,,,,,1.98,1.17,1.60*0B
$GPGSV,2,1,08,02,10,322,47,03,55,225,47,07,60,307,47,08,27,111,47*7D
$GPGSV,2,2,08,11,36,254,47,12,50,056,47,16,61,116,47,21,11,055,47*77
$GPGLL,4503.91797,N,00739.54019,E,150627.00,A,A*69
$GPGRS,150627.00,1,0.2,-0.6,-0.2,-0.3,-0.1,-0.5,0.6,0.3,,,,*60
$GPGST,150627.00,4.5,,,,0.91,0.54,1.5*72
$GPZDA,150627.00,20,05,2014,00,00*61
$GPGBS,150627.00,0.9,0.5,1.5,,,,*4E
$PUBX,00,150627.00,4503.91797,N,00739.54019,E,323.731,G3,1.1,1.5,0.040,0.00,-0.016,,1.17,1.60,1.08,8,0,0*4C
$PUBX,03,08,2,U,322,10,47,064,3,U,225,55,47,064,7,U,307,60,47,064,8,U,111,27,47,064,11,U,254,36,47,064,12,U,056,50,47,064,16,U,116,61,47,064,21,U,055,11,47,064*1D
$PUBX,04,150627.00,200514,227187.00,1793,15D,-993030,-25.185,21*61
$GPDTM,W84,,0.0,N,0.0,E,0.0,W84*6F
$GPRMC,150628.00,A,4503.91797,N,00739.54019,E,0.003,,200514,,,A*7E
$GPVTG,,T,,M,0.003,N,0.006,K,A*26
$GPGGA,150628.00,4503.91797,N,00739.54019,E,1,08,1.17,276.5,M,47.2,M,,*5B
$GPGSA,A,3,21,02,03,16,07,08,11,12,,,,,1.98,1.17,1.60*0B
$GPGSV,2,1,08,02,10,322,47,03,55,225,47,07,60,307,47,08,27,111,47*7D
$GPGSV,2,2,08,11,36,254,47,12,50,056,47,16,61,116,47,21,11,055,47*77
$GPGLL,4503.91797,N,00739.54019,E,150628.00,A,A*66
$GPGRS,150628.00,1,0.2,-0.5,0.2,-0.4,-0.2,0.0,0.4,0.3,,,,*6F
$GPGST,150628.00,4.5,,,,0.91,0.54,1.5*7D
$GPZDA,150628.00,20,05,2014,00,00*6E
$GPGBS,150628.00,0.9,0.5,1.5,,,,*41
$PUBX,00,150628.00,4503.91797,N,00739.54019,E,323.724,G3,1.1,1.5,0.006,0.00,-0.008,,1.17,1.60,1.08,8,0,0*4A
$PUBX,03,08,2,U,322,10,47,064,3,U,225,55,47,064,7,U,307,60,47,064,8,U,111,27,47,064,11,U,254,36,47,064,12,U,056,50,47,064,16,U,116,61,47,064,21,U,055,11,47,064*1D
$PUBX,04,150628.00,200514,227188.00,1793,15D,-993056,-25.249,21*62
$GPDTM,W84,,0.0,N,0.0,E,0.0,W84*6F
$GPRMC,150629.00,A,4503.91796,N,00739.54018,E,0.009,,200514,,,A*75
$GPVTG,,T,,M,0.009,N,0.017,K,A*2C
$GPGGA,150629.00,4503.91796,N,00739.54018,E,1,08,1.17,276.5,M,47.2,M,,*5A
$GPGSA,A,3,21,02,03,16,07,08,11,12,,,,,1.98,1.17,1.60*0B
$GPGSV,2,1,08,02,10,322,47,03,55,225,47,07,60,307,47,08,27,111,47*7D
$GPGSV,2,2,08,11,36,254,47,12,50,056,47,16,61,116,47,21,11,055,47*77
$GPGLL,4503.91796,N,00739.54018,E,150629.00,A,A*67
$GPGRS,150629.00,1,-0.2,-0.3,0.0,-0.3,-0.3,0.2,0.7,0.3,,,,*40
$GPGST,150629.00,4.5,,,,0.91,0.54,1.5*7C
$GPZDA,150629.00,20,05,2014,00,00*6F
$GPGBS,150629.00,0.9,0.5,1.5,,,,*40
$PUBX,00,150629.00,4503.91796,N,00739.54018,E,323.709,G3,1.1,1.5,0.017,0.00,-0.002,,1.17,1.60,1.08,8,0,0*4E
$PUBX,03,08,2,U,322,10,47,064,3,U,225,55,47,064,7,U,307,60,47,064,8,U,111,27,47,064,11,U,254,36,47,064,12,U,056,50,47,064,16,U,116,61,47,064,21,U,055,11,47,064*1D
$PUBX,04,150629.00,200514,227189.00,1793,15D,-993081,-25.227,21*60
$GPDTM,W84,,0.0,N,0.0,E,0.0,W84*6F
$GPRMC,150630.00,A,4503.91796,N,00739.54018,E,0.016,,200514,,,A*73
$GPVTG,,T,,M,0.016,N,0.030,K,A*27
$GPGGA,150630.00,4503.91796,N,00739.54018,E,1,08,1.17,276.5,M,47.2,M,,*52
$GPGSA,A,3,21,02,03,16,07,08,11,12,,,,,1.98,1.17,1.60*0B
$GPGSV,2,1,08,02,10,322,47,03,55,225,47,07,60,307,47,08,27,111,47*7D
$GPGSV,2,2,08,11,36,254,47,12,50,056,47,16,61,116,47,21,11,055,47*77
$GPGLL,4503.91796,N,00739.54018,E,150630.00,A,A*6F
$GPGRS,150630.00,1,0.2,-0.3,0.2,-0.4,0.3,0.2,0.5,0.4,,,,*48
$GPGST,150630.00,4.5,,,,0.91,0.54,1.5*74
$GPZDA,150630.00,20,05,2014,00,00*67
$GPGBS,150630.00,0.9,0.5,1.5,,,,*48
$PUBX,00,150630.00,4503.91796,N,00739.54018,E,323.713,G3,1.1,1.5,0.030,0.00,-0.015,,1.17,1.60,1.08,8,0,0*4E
$PUBX,03,08,2,U,322,10,47,064,3,U,225,55,47,064,7,U,307,60,47,064,8,U,111,27,47,064,11,U,254,36,47,064,12,U,056,50,47,064,16,U,116,61,47,064,21,U,055,11,47,064*1D
$PUBX,04,150630.00,200514,227190.00,1793,15D,-993106,-25.385,21*67
$GPDTM,W84,,0.0,N,0.0,E,0.0,W84*6F
$GPRMC,150631.00,A,4503.91796,N,00739.54018,E,0.014,,200514,,,A*70
$GPVTG,,T,,M,0.014,N,0.025,K,A*21
$GPGGA,150631.00,4503.91796,N,00739.54018,E,1,08,1.17,276.5,M,47.2,M,,*53
$GPGSA,A,3,21,02,03,16,07,08,11,12,,,,,1.98,1.17,1.60*0B
$GPGSV,2,1,08,02,10,322,47,03,55,225,47,07,60,307,47,08,27,111,47*7D
$GPGSV,2,2,08,11,36,254,47,12,50,056,47,16,61,116,47,21,11,055,47*77
$GPGLL,4503.91796,N,00739.54018,E,150631.00,A,A*6E
$GPGRS,150631.00,1,0.6,-1.0,0.0,-0.2,-0.3,-0.1,0.5,0.2,,,,*4E
$GPGST,150631.00,4.5,,,,0.90,0.54,1.5*74
$GPZDA,150631.00,20,05,2014,00,00*66
$GPGBS,150631.00,0.9,0.5,1.5,,,,*49
$PUBX,00,150631.00,4503.91796,N,00739.54018,E,323.710,G3,1.1,1.5,0.025,0.00,-0.015,,1.17,1.60,1.08,8,0,0*48
$PUBX,03,08,2,U,322,10,47,064,3,U,225,55,47,064,7,U,307,60,47,064,8,U,111,27,47,064,11,U,254,36,47,064,12,U,056,50,47,064,16,U,116,61,47,064,21,U,055,11,47,064*1D
$PUBX,04,150631.00,200514,227191.00,1793,15D,-993132,-25.504,21*6F
$GPDTM,W84,,0.0,N,0.0,E,0.0,W84*6F
$GPRMC,150632.00,A,4503.91796,N,00739.54018,E,0.008,,200514,,,A*7E
$GPVTG,,T,,M,0.008,N,0.014,K,A*2E
$GPGGA,150632.00,4503.91796,N,00739.54018,E,1,08,1.17,276.5,M,47.2,M,,*50
$GPGSA,A,3,21,02,03,16,07,08,11,12,,,,,1.98,1.17,1.60*0B
$GPGSV,2,1,08,02,10,322,47,03,55,225,47,07,60,307,47,08,27,111,47*7D
$GPGSV,2,2,08,11,36,254,47,12,50,056,47,16,61,116,47,21,11,055,47*77
$GPGLL,4503.91796,N,00739.54018,E,150632.00,A,A*6D
$GPGRS,150632.00,1,-0.1,-0.7,-0.1,-0.2,0.0,-0.2,0.4,0.3,,,,*60
$GPGST,150632.00,4.5,,,,0.90,0.54,1.5*77
$GPZDA,150632.00,20,05,2014,00,00*65
$GPGBS,150632.00,0.9,0.5,1.5,,,,*4A
$PUBX,00,150632.00,4503.91796,N,00739.54018,E,323.720,G3,1.1,1.5,0.014,0.00,-0.010,,1.17,1.60,1.08,8,0,0*4F
$PUBX,03,08,2,U,322,10,47,064,3,U,225,55,47,064,7,U,307,60,47,064,8,U,111,27,47,064,11,U,254,36,47,064,12,U,056,50,47,064,16,U,116,61,47,064,21,U,055,11,47,064*1D
$PUBX,04,150632.00,200514,227192.00,1793,15D,-993157,-25.617,21*6D
$GPDTM,W84,,0.0,N,0.0,E,0.0,W84*6F
$GPRMC,150633.00,A,4503.91796,N,00739.54017,E,0.003,,200514,,,A*7B
$GPVTG,,T,,M,0.003,N,0.006,K,A*26
$GPGGA,150633.00,4503.91796,N,00739.54017,E,1,08,1.17,276.5,M,47.2,M,,*5E
$GPGSA,A,3,21,02,03,16,07,08,11,12,,,,,1.98,1.17,1.60*0B
$GPGSV,2,1,08,02,10,322,47,03,55,225,47,07,60,307,47,08,27,111,47*7D
$GPGSV,2,2,08,11,36,254,47,12,50,056,47,16,61,116,47,21,11,055,47*77
$GPGLL,4503.91796,N,00739.54017,E,150633.00,A,A*63
$GPGRS,150633.00,1,0.1,-0.5,-0.2,-0.1,-0.2,0.0,1.1,0.6,,,,*4F
$GPGST,150633.00,4.5,,,,0.90,0.54,1.5*76
$GPZDA,150633.00,20,05,2014,00,00*64
$GPGBS,150633.00,0.9,0.5,1.5,,,,*4B
$PUBX,00,150633.00,4503.91796,N,00739.54017,E,323.710,G3,1.0,1.5,0.006,0.00,-0.002,,1.17,1.60,1.08,8,0,0*43
$PUBX,03,08,2,U,322,10,47,064,3,U,225,55,47,064,7,U,307,60,47,064,8,U,111,27,47,064,11,U,254,36,47,064,12,U,056,50,47,064,16,U,116,61,47,064,21,U,055,11,47,064*1D
$PUBX,04,150633.00,200514,227193.00,1793,15D,-993183,-25.668,21*6C
$GPDTM,W84,,0.0,N,0.0,E,0.0,W84*6F
$GPRMC,150634.00,A,4503.91796,N,00739.54017,E,0.008,,200514,,,A*77
$GPVTG,,T,,M,0.008,N,0.014,K,A*2E
$GPGGA,150634.00,4503.91796,N,00739.54017,E,1,08,1.17,276.5,M,47.2,M,,*59
$GPGSA,A,3,21,02,03,16,07,08,11,12,,,,,1.98,1.17,1.60*0B
$GPGSV,2,1,08,02,10,322,47,03,55,225,47,07,60,307,47,08,27,111,47*7D
$GPGSV,2,2,08,11,36,254,47,12,50,056,47,16,61,116,47,21,11,055,47*77
$GPGLL,4503.91796,N,00739.54017,E,150634.00,A,A*64
$GPGRS,150634.00,1,0.0,-0.9,-0.2,-0.4,-0.2,0.2,0.7,0.3,,,,*40
$GPGST,150634.00,4.5,,,,0.90,0.54,1.5*71
$GPZDA,150634.00,20,05,2014,00,00*63
$GPGBS,150634.00,0.9,0.5,1.5,,,,*4C
$PUBX,00,150634.00,4503.91796,N,00739.54017,E,323.698,G3,1.0,1.5,0.014,0.00,-0.004,,1.17,1.60,1.08,8,0,0*40
$PUBX,03,08,2,U,322,10,47,064,3,U,225,55,47,064,7,U,307,60,47,064,8,U,111,27,47,064,11,U,254,36,47,064,12,U,056,50,47,064,16,U,116,61,47,064,21,U,055,11,47,064*1D
$PUBX,04,150634.00,200514,227194.00,1793,15D,-993209,-25.716,21*65
$GPDTM,W84,,0.0,N,0.0,E,0.0,W84*6F
$GPRMC,150635.00,A,4503.91796,N,00739.54018,E,0.006,,200514,,,A*77
$GPVTG,,T,,M,0.006,N,0.010,K,A*24
$GPGGA,150635.00,4503.91796,N,00739.54018,E,1,08,1.17,276.5,M,47.2,M,,*57
$GPGSA,A,3,21,02,03,16,07,08,11,12,,,,,1.98,1.17,1.60*0B
$GPGSV,2,1,08,02,10,322,47,03,55,225,47,07,60,307,47,08,27,111,47*7D
$GPGSV,2,2,08,11,36,254,47,12,50,056,47,16,61,116,47,21,11,055,47*77
$GPGLL,4503.91796,N,00739.54018,E,150635.00,A,A*6A
$GPGRS,150635.00,1,0.1,-0.8,-0.3,-0.4,-0.1,0.4,0.3,0.4,,,,*46
$GPGST,150635.00,4.5,,,,0.90,0.54,1.5*70
$GPZDA,150635.00,20,05,2014,00,00*62
$GPGBS,150635.00,0.9,0.5,1.5,,,,*4D
$PUBX,00,150635.00,4503.91796,N,00739.54018,E,323.692,G3,1.0,1.5,0.010,0.00,-0.002,,1.17,1.60,1.08,8,0,0*46
$PUBX,03,08,2,U,322,10,47,064,3,U,225,55,47,064,7,U,307,60,47,064,8,U,111,27,47,064,11,U,254,36,47,064,12,U,056,50,47,064,16,U,116,61,47,064,21,U,055,11,47,064*1D
$PUBX,04,150635.00,200514,227195.00,1793,15D,-993235,-25.758,21*60
$GPDTM,W84,,0.0,N,0.0,E,0.0,W84*6F
$GPRMC,150636.00,A,4503.91795,N,00739.54018,E,0.002,,200514,,,A*73
$GPVTG,,T,,M,0.002,N,0.004,K,A*25
$GPGGA,150636.00,4503.91795,N,00739.54018,E,1,08,1.17,276.5,M,47.2,M,,*57
$GPGSA,A,3,21,02,03,16,07,08,11,12,,,,,1.98,1.17,1.60*0B
$GPGSV,2,1,08,02,10,322,47,03,55,225,47,07,60,307,47,08,27,111,47*7D
$GPGSV,2,2,08,11,36,254,47,12,50,056,47,16,61,116,47,21,11,055,47*77
$GPGLL,4503.91795,N,00739.54018,E,150636.00,A,A*6A
$GPGRS,150636.00,1,0.0,-0.8,-0.3,-0.2,-0.1,-0.2,0.6,-0.1,,,,*44
$GPGST,150636.00,4.5,,,,0.90,0.53,1.5*74
$GPZDA,150636.00,20,05,2014,00,00*61
$GPGBS,150636.00,0.9,0.5,1.5,,,,*4E
$PUBX,00,150636.00,4503.91795,N,00739.54018,E,323.688,G3,1.0,1.5,0.004,0.00,-0.001,,1.17,1.60,1.08,8,0,0*4B
$PUBX,03,08,2,U,322,10,47,064,3,U,225,55,47,064,7,U,307,60,47,064,8,U,111,27,47,064,11,U,254,36,47,064,12,U,056,50,47,064,16,U,116,61,47,064,21,U,055,11,47,064*1D
$PUBX,04,150636.00,200514,227196.00,1793,15D,-993260,-25.774,21*6E
$GPDTM,W84,,0.0,N,0.0,E,0.0,W84*6F
$GPRMC,150637.00,A,4503.91796,N,00739.54018,E,0.006,,200514,,,A*75
$GPVTG,,T,,M,0.006,N,0.011,K,A*25
$GPGGA,150637.00,4503.91796,N,00739.54018,E,1,08,1.17,276.5,M,47.2,M,,*55
$GPGSA,A,3,21,02,03,16,07,08,11,12,,,,,1.98,1.17,1.60*0B
$GPGSV,2,1,08,02,10,322,47,03,55,225,47,07,60,307,47,08,27,111,47*7D
$GPGSV,2,2,08,11,36,254,47,12,50,056,47,16,61,116,47,21,11,055,47*77
$GPGLL,4503.91796,N,00739.54018,E,150637.00,A,A*68
$GPGRS,150637.00,1,0.2,-1.0,-0.3,-0.5,-0.3,-0.3,0.4,0.6,,,,*62
$GPGST,150637.00,4.5,,,,0.90,0.53,1.5*75
$GPZDA,150637.00,20,05,2014,00,00*60
$GPGBS,150637.00,0.9,0.5,1.5,,,,*4F
$PUBX,00,150637.00,4503.91796,N,00739.54018,E,323.696,G3,1.0,1.5,0.011,0.00,-0.007,,1.17,1.60,1.08,8,0,0*44
$PUBX,03,08,2,U,322,10,47,064,3,U,225,55,47,064,7,U,307,60,47,064,8,U,111,27,47,064,11,U,254,36,47,064,12,U,056,50,47,064,16,U,116,61,47,064,21,U,055,11,47,064*1D
$PUBX,04,150637.00,200514,227197.00,1793,15D,-993286,-25.838,21*61
$GPDTM,W84,,0.0,N,0.0,E,0.0,W84*6F
$GPRMC,150638.00,A,4503.91796,N,00739.54018,E,0.020,,200514,,,A*7E
$GPVTG,,T,,M,0.020,N,0.036,K,A*24
$GPGGA,150638.00,4503.91796,N,00739.54018,E,1,08,1.17,276.5,M,47.2,M,,*5A
$GPGSA,A,3,21,02,03,16,07,08,11,12,,,,,1.98,1.17,1.60*0B
$GPGSV,2,1,08,02,11,322,47,03,55,225,47,07,60,307,47,08,27,111,47*7C
$GPGSV,2,2,08,11,36,254,47,12,50,056,47,16,61,116,47,21,11,055,47*77
$GPGLL,4503.91796,N,00739.54018,E,150638.00,A,A*67
$GPGRS,150638.00,1,0.5,-1.1,-0.1,-0.6,0.2,-0.3,0.4,0.2,,,,*42
$GPGST,150638.00,4.5,,,,0.89,0.53,1.5*72
$GPZDA,150638.00,20,05,2014,00,00*6F
$GPGBS,150638.00,0.9,0.5,1.5,,,,*40
$PUBX,00,150638.00,4503.91796,N,00739.54018,E,323.705,G3,1.0,1.5,0.036,0.00,-0.019,,1.17,1.60,1.08,8,0,0*4A
$PUBX,03,08,2,U,322,11,47,064,3,U,225,55,47,064,7,U,307,60,47,064,8,U,111,27,47,064,11,U,254,36,47,064,12,U,056,50,47,064,16,U,116,61,47,064,21,U,055,11,47,064*1C
$PUBX,04,150638.00,200514,227198.00,1793,15D,-993312,-26.039,21*67
$GPDTM,W84,,0.0,N,0.0,E,0.0,W84*6F
$GPRMC,150639.00,A,4503.91796,N,00739.54017,E,0.023,,200514,,,A*73
$GPVTG,,T,,M,0.023,N,0.042,K,A*24
$GPGGA,150639.00,4503.91796,N,00739.54017,E,1,08,1.17,276.5,M,47.2,M,,*54
$GPGSA,A,3,21,02,03,16,07,08,11,12,,,,,1.98,1.17,1.60*0B
$GPGSV,2,1,08,02,11,322,47,03,55,224,47,07,60,307,47,08,27,111,47*7D
$GPGSV,2,2,08,11,36,254,47,12,50,056,47,16,61,116,47,21,11,055,47*77
$GPGLL,4503.91796,N,00739.54017,E,150639.00,A,A*69
$GPGRS,150639.00,1,0.4,-0.2,0.1,-0.4,-0.3,-0.3,0.9,0.2,,,,*4E
$GPGST,150639.00,4.5,,,,0.89,0.53,1.5*73
$GPZDA,150639.00,20,05,2014,00,00*6E
$GPGBS,150639.00,0.9,0.5,1.5,,,,*41
$PUBX,00,150639.00,4503.91796,N,00739.54017,E,323.690,G3,1.0,1.5,0.042,0.00,-0.018,,1.17,1.60,1.08,8,0,0*4B
$PUBX,03,08,2,U,322,11,47,064,3,U,224,55,47,064,7,U,307,60,47,064,8,U,111,27,47,064,11,U,254,36,47,064,12,U,056,50,47,064,16,U,116,61,47,064,21,U,055,11,47,064*1D
$PUBX,04,150639.00,200514,227199.00,1793,15D,-993338,-26.169,21*6B
$GPDTM,W84,,0.0,N,0.0,E,0.0,W84*6F
$GPRMC,150640.00,A,4503.91796,N,00739.54017,E,0.020,,200514,,,A*7E
$GPVTG,,T,,M,0.020,N,0.038,K,A*2A
$GPGGA,150640.00,4503.91796,N,00739.54017,E,1,08,1.17,276.4,M,47.2,M,,*5B
$GPGSA,A,3,21,02,03,16,07,08,11,12,,,,,1.98,1.17,1.60*0B
$GPGSV,2,1,08,02,11,322,47,03,55,224,47,07,60,307,47,08,27,111,47*7D
$GPGSV,2,2,08,11,36,254,47,12,50,056,47,16,61,116,47,21,11,055,47*77
$GPGLL,4503.91796,N,00739.54017,E,150640.00,A,A*67
$GPGRS,150640.00,1,-0.1,-0.3,-0.1,-0.3,-0.3,0.1,0.7,0.1,,,,*61
$GPGST,150640.00,4.5,,,,0.89,0.53,1.5*7D
$GPZDA,150640.00,20,05,2014,00,00*60
$GPGBS,150640.00,0.9,0.5,1.5,,,,*4F
$PUBX,00,150640.00,4503.91796,N,00739.54017,E,323.674,G3,1.0,1.5,0.038,0.00,-0.016,,1.17,1.60,1.08,8,0,0*4C
$PUBX,03,08,2,U,322,11,47,064,3,U,224,55,47,064,7,U,307,60,47,064,8,U,111,27,47,064,11,U,254,36,47,064,12,U,056,50,47,064,16,U,116,61,47,064,21,U,055,11,47,064*1D
$PUBX,04,150640.00,200514,227200.00,1793,15D,-993365,-26.312,21*60
$GPDTM,W84,,0.0,N,0.0,E,0.0,W84*6F
$GPRMC,150641.00,A,4503.91795,N,00739.54016,E,0.002,,200514,,,A*7D
$GPVTG,,T,,M,0.002,N,0.003,K,A*22
$GPGGA,150641.00,4503.91795,N,00739.54016,E,1,08,1.17,276.4,M,47.2,M,,*58
$GPGSA,A,3,21,02,03,16,07,08,11,12,,,,,1.98,1.17,1.60*0B
$GPGSV,2,1,08,02,11,322,47,03,55,224,47,07,60,307,47,08,27,111,47*7D
$GPGSV,2,2,08,11,36,254,47,12,50,056,47,16,61,116,47,21,11,055,47*77
$GPGLL,4503.91795,N,00739.54016,E,150641.00,A,A*64
$GPGRS,150641.00,1,0.0,-0.6,-0.2,-0.1,0.1,0.1,0.8,-0.1,,,,*45
$GPGST,150641.00,4.5,,,,0.89,0.53,1.5*7C
$GPZDA,150641.00,20,05,2014,00,00*61
$GPGBS,150641.00,0.9,0.5,1.5,,,,*4E
$PUBX,00,150641.00,4503.91795,N,00739.54016,E,323.669,G3,1.0,1.5,0.003,0.00,-0.006,,1.17,1.60,1.08,8,0,0*4A
$PUBX,03,08,2,U,322,11,47,064,3,U,224,55,47,064,7,U,307,60,47,064,8,U,111,27,47,064,11,U,254,36,47,064,12,U,056,50,47,064,16,U,116,61,47,064,21,U,055,11,47,064*1D
$PUBX,04,150641.00,200514,227201.00,1793,15D,-993391,-26.320,21*6A
$GPDTM,W84,,0.0,N,0.0,E,0.0,W84*6F
$GPRMC,150642.00,A,4503.91795,N,00739.54016,E,0.012,,200514,,,A*7F
$GPVTG,,T,,M,0.012,N,0.023,K,A*21
$GPGGA,150642.00,4503.91795,N,00739.54016,E,1,08,1.17,276.4,M,47.2,M,,*5B
$GPGSA,A,3,21,02,03,16,07,08,11,12,,,,,1.98,1.17,1.60*0B
$GPGSV,2,1,08,02,11,322,47,03,55,224,47,07,60,307,47,08,27,111,47*7D
$GPGSV,2,2,08,11,36,254,47,12,50,056,47,16,61,116,47,21,11,055,47*77
$GPGLL,4503.91795,N,00739.54016,E,150642.00,A,A*67
$GPGRS,150642.00,1,0.3,-0.7,-0.2,-0.5,-0.1,0.0,0.7,0.1,,,,*4E
$GPGST,150642.00,4.5,,,,0.89,0.53,1.5*7F
$GPZDA,150642.00,20,05,2014,00,00*62
$GPGBS,150642.00,0.9,0.5,1.5,,,,*4D
$PUBX,00,150642.00,4503.91795,N,00739.54016,E,323.651,G3,1.0,1.5,0.023,0.00,0.005,,1.17,1.60,1.08,8,0,0*6E
$PUBX,03,08,2,U,322,11,47,064,3,U,224,55,47,064,7,U,307,60,47,064,8,U,111,27,47,064,11,U,254,36,47,064,12,U,056,50,47,064,16,U,116,61,47,064,21,U,055,11,47,064*1D
$PUBX,04,150642.00,200514,227202.00,1793,15D,-993417,-26.284,21*6C
$GPDTM,W84,,0.0,N,0.0,E,0.0,W84*6F
$GPRMC,150643.00,A,4503.91795,N,00739.54016,E,0.005,,200514,,,A*78
$GPVTG,,T,,M,0.005,N,0.009,K,A*2F
$GPGGA,150643.00,4503.91795,N,00739.54016,E,1,08,1.17,276.4,M,47.2,M,,*5A
$GPGSA,A,3,21,02,03,16,07,08,11,12,,,,,1.98,1.17,1.60*0B
$GPGSV,2,1,08,02,11,322,47,03,55,224,47,07,60,307,47,08,27,111,47*7D
$GPGSV,2,2,08,11,36,254,47,12,50,056,47,16,61,116,47,21,11,055,47*77
$GPGLL,4503.91795,N,00739.54016,E,150643.00,A,A*66
$GPGRS,150643.00,1,0.3,-0.6,-0.3,-0.5,0.2,-0.2,0.6,0.4,,,,*4A
$GPGST,150643.00,4.5,,,,0.89,0.53,1.5*7E
$GPZDA,150643.00,20,05,2014,00,00*63
$GPGBS,150643.00,0.9,0.5,1.5,,,,*4C
$PUBX,00,150643.00,4503.91795,N,00739.54016,E,323.651,G3,1.0,1.5,0.009,0.00,-0.004,,1.17,1.60,1.08,8,0,0*4B
$PUBX,03,08,2,U,322,11,47,064,3,U,224,55,47,064,7,U,307,60,47,064,8,U,111,27,47,064,11,U,254,36,47,064,12,U,056,50,47,064,16,U,116,61,47,064,21,U,055,11,47,064*1D
$PUBX,04,150643.00,200514,227203.00,1793,15D,-993444,-26.395,21*6B
$GPDTM,W84,,0.0,N,0.0,E,0.0,W84*6F
$GPRMC,150644.00,A,4503.91795,N,00739.54015,E,0.011,,200514,,,A*79
$GPVTG,,T,,M,0.011,N,0.021,K,A*20
$GPGGA,150644.00,4503.91795,N,00739.54015,E,1,08,1.17,276.4,M,47.2,M,,*5E
$GPGSA,A,3,21,02,03,16,07,08,11,12,,,,,1.98,1.17,1.60*0B
$GPGSV,2,1,08,02,11,322,47,03,55,224,47,07,60,307,47,08,27,112,47*7E
$GPGSV,2,2,08,11,36,254,47,12,50,056,47,16,61,116,47,21,11,055,47*77
$GPGLL,4503.91795,N,00739.54015,E,150644.00,A,A*62
$GPGRS,150644.00,1,-0.1,-0.5,-0.1,-0.4,-0.3,0.0,0.8,0.3,,,,*68
$GPGST,150644.00,4.5,,,,0.89,0.53,1.5*79
$GPZDA,150644.00,20,05,2014,00,00*64
$GPGBS,150644.00,0.9,0.5,1.5,,,,*4B
$PUBX,00,150644.00,4503.91795,N,00739.54015,E,323.640,G3,1.0,1.5,0.021,0.00,-0.007,,1.17,1.60,1.08,8,0,0*46
$PUBX,03,08,2,U,322,11,47,064,3,U,224,55,47,064,7,U,307,60,47,064,8,U,112,27,47,064,11,U,254,36,47,064,12,U,056,50,47,064,16,U,116,61,47,064,21,U,055,11,47,064*1E
$PUBX,04,150644.00,200514,227204.00,1793,15D,-993470,-26.448,21*6B
$GPDTM,W84,,0.0,N,0.0,E,0.0,W84*6F
$GPRMC,150645.00,A,4503.91795,N,00739.54016,E,0.013,,200514,,,A*79
$GPVTG,,T,,M,0.013,N,0.024,K,A*27
$GPGGA,150645.00,4503.91795,N,00739.54016,E,1,08,1.17,276.4,M,47.2,M,,*5C
$GPGSA,A,3,21,02,03,16,07,08,11,12,,,,,1.98,1.17,1.60*0B
$GPGSV,2,1,08,02,11,322,47,03,55,224,47,07,60,307,47,08,27,112,47*7E
$GPGSV,2,2,08,11,36,254,47,12,50,056,47,16,61,116,47,21,11,055,47*77
$GPGLL,4503.91795,N,00739.54016,E,150645.00,A,A*60
$GPGRS,150645.00,1,0.3,-0.8,0.2,-0.4,0.1,0.3,0.1,0.8,,,,*4B
$GPGST,150645.00,4.5,,,,0.89,0.53,1.5*78
$GPZDA,150645.00,20,05,2014,00,00*65
$GPGBS,150645.00,0.9,0.5,1.5,,,,*4A
$PUBX,00,150645.00,4503.91795,N,00739.54016,E,323.654,G3,1.0,1.5,0.024,0.00,-0.011,,1.17,1.60,1.08,8,0,0*43
$PUBX,03,08,2,U,322,11,47,064,3,U,224,55,47,064,7,U,307,60,47,064,8,U,112,27,47,064,11,U,254,36,47,064,12,U,056,50,47,064,16,U,116,61,47,064,21,U,055,11,47,064*1E
$PUBX,04,150645.00,200514,227205.00,1793,15D,-993497,-26.549,21*62
$GPDTM,W84,,0.0,N,0.0,E,0.0,W84*6F
$GPRMC,150646.00,A,4503.91795,N,00739.54017,E,0.004,,200514,,,A*7D
$GPVTG,,T,,M,0.004,N,0.007,K,A*20
$GPGGA,150646.00,4503.91795,N,00739.54017,E,1,08,1.17,276.4,M,47.2,M,,*5E
$GPGSA,A,3,21,02,03,16,07,08,11,12,,,,,1.98,1.17,1.60*0B
$GPGSV,2,1,08,02,11,322,47,03,55,224,47,07,60,307,47,08,27,112,47*7E
$GPGSV,2,2,08,11,36,254,47,12,50,056,47,16,61,116,47,21,11,055,47*77
$GPGLL,4503.91795,N,00739.54017,E,150646.00,A,A*62
$GPGRS,150646.00,1,0.1,-0.6,0.0,-0.2,-0.1,0.4,0.1,0.8,,,,*6A
$GPGST,150646.00,4.5,,,,0.89,0.53,1.4*7A
$GPZDA,150646.00,20,05,2014,00,00*66
$GPGBS,150646.00,0.9,0.5,1.4,,,,*48
$PUBX,00,150646.00,4503.91795,N,00739.54017,E,323.662,G3,1.0,1.4,0.007,0.00,-0.004,,1.17,1.60,1.08,8,0,0*40
$PUBX,03,08,2,U,322,11,47,064,3,U,224,55,47,064,7,U,307,60,47,064,8,U,112,27,47,064,11,U,254,36,47,064,12,U,056,50,47,064,16,U,116,61,47,064,21,U,055,11,47,064*1E
$PUBX,04,150646.00,200514,227206.00,1793,15D,-993523,-26.570,21*66
$GPDTM,W84,,0.0,N,0.0,E,0.0,W84*6F
$GPRMC,150647.00,A,4503.91796,N,00739.54017,E,0.010,,200514,,,A*7A
$GPVTG,,T,,M,0.010,N,0.018,K,A*2B
$GPGGA,150647.00,4503.91796,N,00739.54017,E,1,08,1.17,276.4,M,47.2,M,,*5C
$GPGSA,A,3,21,02,03,16,07,08,11,12,,,,,1.98,1.17,1.60*0B
$GPGSV,2,1,08,02,11,322,47,03,55,224,47,07,60,307,47,08,27,112,47*7E
$GPGSV,2,2,08,11,37,254,47,12,50,056,47,16,61,116,47,21,11,055,47*76
$GPGLL,4503.91796,N,00739.54017,E,150647.00,A,A*60
$GPGRS,150647.00,1,0.3,-0.8,0.0,-0.5,0.2,0.2,0.1,0.5,,,,*45
$GPGST,150647.00,4.5,,,,0.89,0.53,1.4*7B
$GPZDA,150647.00,20,05,2014,00,00*67
$GPGBS,150647.00,0.9,0.5,1.4,,,,*49
$PUBX,00,150647.00,4503.91796,N,00739.54017,E,323.665,G3,1.0,1.4,0.018,0.00,-0.008,,1.17,1.60,1.08,8,0,0*47
$PUBX,03,08,2,U,322,11,47,064,3,U,224,55,47,064,7,U,307,60,47,064,8,U,112,27,47,064,11,U,254,37,47,064,12,U,056,50,47,064,16,U,116,61,47,064,21,U,055,11,47,064*1F
$PUBX,04,150647.00,200514,227207.00,1793,15D,-993550,-26.723,21*66
$GPDTM,W84,,0.0,N,0.0,E,0.0,W84*6F
$GPRMC,150648.00,A,4503.91796,N,00739.54017,E,0.006,,200514,,,A*72
$GPVTG,,T,,M,0.006,N,0.011,K,A*25
$GPGGA,150648.00,4503.91796,N,00739.54017,E,1,08,1.17,276.4,M,47.2,M,,*53
$GPGSA,A,3,21,02,03,16,07,08,11,12,,,,,1.98,1.17,1.60*0B
$GPGSV,2,1,08,02,11,322,47,03,55,224,47,07,60,307,47,08,27,112,47*7E
$GPGSV,2,2,08,11,37,254,47,12,50,057,47,16,61,116,47,21,11,055,47*77
$GPGLL,4503.91796,N,00739.54017,E,150648.00,A,A*6F
$GPGRS,150648.00,1,0.1,-0.5,-0.1,-0.6,-0.1,0.3,0.4,0.6,,,,*43
$GPGST,150648.00,4.5,,,,0.89,0.53,1.4*74
$GPZDA,150648.00,20,05,2014,00,00*68
$GPGBS,150648.00,0.9,0.5,1.4,,,,*46
$PUBX,00,150648.00,4503.91796,N,00739.54017,E,323.658,G3,1.0,1.4,0.011,0.00,-0.001,,1.17,1.60,1.08,8,0,0*46
$PUBX,03,08,2,U,322,11,47,064,3,U,224,55,47,064,7,U,307,60,47,064,8,U,112,27,47,064,11,U,254,37,47,064,12,U,057,50,47,064,16,U,116,61,47,064,21,U,055,11,47,064*1E
$PUBX,04,150648.00,200514,227208.00,1793,15D,-993577,-26.721,21*61
$GPDTM,W84,,0.0,N,0.0,E,0.0,W84*6F
$GPRMC,150649.00,A,4503.91796,N,00739.54017,E,0.005,,200514,,,A*70
$GPVTG,,T,,M,0.005,N,0.009,K,A*2F
$GPGGA,150649.00,4503.91796,N,00739.54017,E,1,08,1.17,276.4,M,47.2,M,,*52
$GPGSA,A,3,21,02,03,16,07,08,11,12,,,,,1.98,1.17,1.60*0B
$GPGSV,2,1,08,02,11,322,47,03,55,224,47,07,60,307,47,08,27,112,47*7E
$GPGSV,2,2,08,11,37,254,47,12,50,057,47,16,61,116,47,21,11,055,47*77
$GPGLL,4503.91796,N,00739.54017,E,150649.00,A,A*6E
$GPGRS,150649.00,1,0.1,-0.7,-0.1,-0.4,-0.2,0.3,0.6,0.6,,,,*43
$GPGST,150649.00,4.5,,,,0.89,0.53,1.4*75
$GPZDA,150649.00,20,05,2014,00,00*69
$GPGBS,150649.00,0.9,0.5,1.4,,,,*47
$PUBX,00,150649.00,4503.91796,N,00739.54017,E,323.658,G3,1.0,1.4,0.009,0.00,0.000,,1.17,1.60,1.08,8,0,0*62
$PUBX,03,08,2,U,322,11,47,064,3,U,224,55,47,064,7,U,307,60,47,064,8,U,112,27,47,064,11,U,254,37,47,064,12,U,057,50,47,064,16,U,116,61,47,064,21,U,055,11,47,064*1E
$PUBX,04,150649.00,200514,227209.00,1793,15D,-993603,-26.632,21*62
$GPDTM,W84,,0.0,N,0.0,E,0.0,W84*6F
$GPRMC,150650.00,A,4503.91796,N,00739.54018,E,0.011,,200514,,,A*72
$GPVTG,,T,,M,0.011,N,0.019,K,A*2B
$GPGGA,150650.00,4503.91796,N,00739.54018,E,1,08,1.17,276.4,M,47.2,M,,*55
$GPGSA,A,3,21,02,03,16,07,08,11,12,,,,,1.98,1.17,1.60*0B
$GPGSV,2,1,08,02,11,322,47,03,55,224,47,07,60,307,47,08,27,112,47*7E
$GPGSV,2,2,08,11,37,254,47,12,50,057,47,16,61,116,47,21,11,055,47*77
$GPGLL,4503.91796,N,00739.54018,E,150650.00,A,A*69
$GPGRS,150650.00,1,-0.1,-0.5,-0.4,-0.5,-0.1,0.1,0.3,0.3,,,,*61
$GPGST,150650.00,4.5,,,,0.89,0.53,1.4*7D
$GPZDA,150650.00,20,05,2014,00,00*61
$GPGBS,150650.00,0.9,0.5,1.4,,,,*4F
$PUBX,00,150650.00,4503.91796,N,00739.54018,E,323.654,G3,1.0,1.4,0.019,0.00,-0.004,,1.17,1.60,1.08,8,0,0*41
$PUBX,03,08,2,U,322,11,47,064,3,U,224,55,47,064,7,U,307,60,47,064,8,U,112,27,47,064,11,U,254,37,47,064,12,U,057,50,47,064,16,U,116,61,47,064,21,U,055,11,47,064*1E
$PUBX,04,150650.00,200514,227210.00,1793,15D,-993630,-26.692,21*68
$GPDTM,W84,,0.0,N,0.0,E,0.0,W84*6F
$GPRMC,150651.00,A,4503.91796,N,00739.54018,E,0.006,,200514,,,A*75
$GPVTG,,T,,M,0.006,N,0.010,K,A*24
$GPGGA,150651.00,4503.91796,N,00739.54018,E,1,08,1.17,276.4,M,47.2,M,,*54
$GPGSA,A,3,21,02,03,16,07,08,11,12,,,,,1.98,1.17,1.60*0B
$GPGSV,2,1,08,02,11,322,47,03,55,224,47,07,60,307,47,08,27,112,47*7E
$GPGSV,2,2,08,11,37,254,47,12,50,057,47,16,61,116,47,21,11,055,47*77
$GPGLL,4503.91796,N,00739.54018,E,150651.00,A,A*68
$GPGRS,150651.00,1,0.3,-0.3,0.2,-0.3,-0.1,-0.2,0.2,0.4,,,,*4C
$GPGST,150651.00,4.5,,,,0.88,0.53,1.4*7D
$GPZDA,150651.00,20,05,2014,00,00*60
$GPGBS,150651.00,0.9,0.5,1.4,,,,*4E
$PUBX,00,150651.00,4503.91796,N,00739.54018,E,323.655,G3,1.0,1.4,0.010,0.00,-0.013,,1.17,1.60,1.08,8,0,0*4E
$PUBX,03,08,2,U,322,11,47,064,3,U,224,55,47,064,7,U,307,60,47,064,8,U,112,27,47,064,11,U,254,37,47,064,12,U,057,50,47,064,16,U,116,61,47,064,21,U,055,11,47,064*1E
$PUBX,04,150651.00,200514,227211.00,1793,15D,-993657,-26.830,21*6F
$GPDTM,W84,,0.0,N,0.0,E,0.0,W84*6F
$GPRMC,150652.00,A,4503.91796,N,00739.54018,E,0.011,,200514,,,A*70
$GPVTG,,T,,M,0.011,N,0.020,K,A*21
$GPGGA,150652.00,4503.91796,N,00739.54018,E,1,08,1.17,276.4,M,47.2,M,,*57
$GPGSA,A,3,21,02,03,16,07,08,11,12,,,,,1.98,1.17,1.60*0B
$GPGSV,2,1,08,02,11,322,47,03,55,224,47,07,60,307,47,08,27,112,47*7E
$GPGSV,2,2,08,11,37,254,47,12,50,057,47,16,61,115,47,21,11,055,47*74
$GPGLL,4503.91796,N,00739.54018,E,150652.00,A,A*6B
$GPGRS,150652.00,1,0.5,-0.5,0.0,-0.4,-0.4,0.1,0.3,0.2,,,,*66
$GPGST,150652.00,4.5,,,,0.88,0.53,1.4*7E
$GPZDA,150652.00,20,05,2014,00,00*63
$GPGBS,150652.00,0.9,0.5,1.4,,,,*4D
$PUBX,00,150652.00,4503.91796,N,00739.54018,E,323.633,G3,1.0,1.4,0.020,0.00,-0.005,,1.17,1.60,1.08,8,0,0*49
$PUBX,03,08,2,U,322,11,47,064,3,U,224,55,47,064,7,U,307,60,47,064,8,U,112,27,47,064,11,U,254,37,47,064,12,U,057,50,47,064,16,U,115,61,47,064,21,U,055,11,47,064*1D
$PUBX,04,150652.00,200514,227212.00,1793,15D,-993684,-26.908,21*6B
$GPDTM,W84,,0.0,N,0.0,E,0.0,W84*6F
$GPRMC,150653.00,A,4503.91796,N,00739.54018,E,0.003,,200514,,,A*72
$GPVTG,,T,,M,0.003,N,0.005,K,A*25
$GPGGA,150653.00,4503.91796,N,00739.54018,E,1,08,1.17,276.4,M,47.2,M,,*56
$GPGSA,A,3,21,02,03,16,07,08,11,12,,,,,1.98,1.17,1.60*0B
$GPGSV,2,1,08,02,11,322,47,03,55,224,47,07,60,307,47,08,27,112,47*7E
$GPGSV,2,2,08,11,37,254,47,12,50,057,47,16,61,115,47,21,11,055,47*74
$GPGLL,4503.91796,N,00739.54018,E,150653.00,A,A*6A
$GPGRS,150653.00,1,0.6,-0.7,-0.1,-0.4,-0.2,-0.1,0.5,0.1,,,,*64
$GPGST,150653.00,4.5,,,,0.88,0.53,1.4*7F
$GPZDA,150653.00,20,05,2014,00,00*62
$GPGBS,150653.00,0.9,0.5,1.4,,,,*4C
$PUBX,00,150653.00,4503.91796,N,00739.54018,E,323.621,G3,1.0,1.4,0.005,0.00,-0.003,,1.17,1.60,1.08,8,0,0*4A
$PUBX,03,08,2,U,322,11,47,064,3,U,224,55,47,064,7,U,307,60,47,064,8,U,112,27,47,064,11,U,254,37,47,064,12,U,057,50,47,064,16,U,115,61,47,064,21,U,055,11,47,064*1D
$PUBX,04,150653.00,200514,227213.00,1793,15D,-993711,-26.898,21*6E
$GPDTM,W84,,0.0,N,0.0,E,0.0,W84*6F
$GPRMC,150654.00,A,4503.91796,N,00739.54017,E,0.004,,200514,,,A*7D
$GPVTG,,T,,M,0.004,N,0.008,K,A*2F
$GPGGA,150654.00,4503.91796,N,00739.54017,E,1,08,1.17,276.4,M,47.2,M,,*5E
$GPGSA,A,3,21,02,03,16,07,08,11,12,,,,,1.98,1.17,1.60*0B
$GPGSV,2,1,08,02,11,322,47,03,55,224,47,07,60,307,47,08,27,112,47*7E
$GPGSV,2,2,08,11,37,254,47,12,50,057,47,16,61,115,47,21,11,055,47*74
$GPGLL,4503.91796,N,00739.54017,E,150654.00,A,A*62
$GPGRS,150654.00,1,0.3,-1.0,0.1,-0.6,0.0,-0.3,0.9,0.5,,,,*6A
$GPGST,150654.00,4.5,,,,0.88,0.53,1.4*78
$GPZDA,150654.00,20,05,2014,00,00*65
$GPGBS,150654.00,0.9,0.5,1.4,,,,*4B
$PUBX,00,150654.00,4503.91796,N,00739.54017,E,323.623,G3,1.0,1.4,0.008,0.00,-0.003,,1.17,1.60,1.08,8,0,0*4D
$PUBX,03,08,2,U,322,11,47,064,3,U,224,55,47,064,7,U,307,60,47,064,8,U,112,27,47,064,11,U,254,37,47,064,12,U,057,50,47,064,16,U,115,61,47,064,21,U,055,11,47,064*1D
$PUBX,04,150654.00,200514,227214.00,1793,15D,-993738,-26.909,21*6C
$GPDTM,W84,,0.0,N,0.0,E,0.0,W84*6F
$GPRMC,150655.00,A,4503.91796,N,00739.54017,E,0.004,,200514,,,A*7C
$GPVTG,,T,,M,0.004,N,0.007,K,A*20
$GPGGA,150655.00,4503.91796,N,00739.54017,E,1,08,1.17,276.4,M,47.2,M,,*5F
$GPGSA,A,3,21,02,03,16,07,08,11,12,,,,,1.98,1.17,1.60*0B
$GPGSV,2,1,08,02,11,322,47,03,55,224,47,07,60,307,47,08,27,112,47*7E
$GPGSV,2,2,08,11,37,254,47,12,50,057,47,16,61,115,47,21,11,055,47*74
$GPGLL,4503.91796,N,00739.54017,E,150655.00,A,A*63
$GPGRS,150655.00,1,0.2,-0.6,0.2,-0.7,0.1,0.0,0.3,0.1,,,,*4E
$GPGST,150655.00,4.5,,,,0.88,0.53,1.4*79
$GPZDA,150655.00,20,05,2014,00,00*64
$GPGBS,150655.00,0.9,0.5,1.4,,,,*4A
$PUBX,00,150655.00,4503.91796,N,00739.54017,E,323.620,G3,1.0,1.4,0.007,0.00,-0.009,,1.17,1.60,1.08,8,0,0*4A
$PUBX,03,08,2,U,322,11,47,064,3,U,224,55,47,064,7,U,307,60,47,064,8,U,112,27,47,064,11,U,254,37,47,064,12,U,057,50,47,064,16,U,115,61,47,064,21,U,055,11,47,064*1D
$PUBX,04,150655.00,200514,227215.00,1793,15D,-993764,-27.010,21*65
$GPDTM,W84,,0.0,N,0.0,E,0.0,W84*6F
$GPRMC,150656.00,A,4503.91796,N,00739.54017,E,0.003,,200514,,,A*78
$GPVTG,,T,,M,0.003,N,0.006,K,A*26
$GPGGA,150656.00,4503.91796,N,00739.54017,E,1,08,1.17,276.4,M,47.2,M,,*5C
$GPGSA,A,3,21,02,03,16,07,08,11,12,,,,,1.98,1.17,1.60*0B
$GPGSV,2,1,08,02,11,322,47,03,55,224,47,07,60,307,47,08,27,112,47*7E
$GPGSV,2,2,08,11,37,254,47,12,50,057,47,16,61,115,47,21,11,055,47*74
$GPGLL,4503.91796,N,00739.54017,E,150656.00,A,A*60
$GPGRS,150656.00,1,0.3,-0.7,0.0,-0.3,0.0,-0.4,0.2,0.2,,,,*61
$GPGST,150656.00,4.5,,,,0.88,0.53,1.4*7A
$GPZDA,150656.00,20,05,2014,00,00*67
$GPGBS,150656.00,0.9,0.5,1.4,,,,*49
$PUBX,00,150656.00,4503.91796,N,00739.54017,E,323.632,G3,1.0,1.4,0.006,0.00,-0.004,,1.17,1.60,1.08,8,0,0*46
$PUBX,03,08,2,U,322,11,47,064,3,U,224,55,47,064,7,U,307,60,47,064,8,U,112,27,47,064,11,U,254,37,47,064,12,U,057,50,47,064,16,U,115,61,47,064,21,U,055,11,47,064*1D
$PUBX,04,150656.00,200514,227216.00,1793,15D,-993791,-27.010,21*6F
$GPDTM,W84,,0.0,N,0.0,E,0.0,W84*6F
$GPRMC,150657.00,A,4503.91796,N,00739.54017,E,0.003,,200514,,,A*79
$GPVTG,,T,,M,0.003,N,0.005,K,A*25
$GPGGA,150657.00,4503.91796,N,00739.54017,E,1,08,1.17,276.4,M,47.2,M,,*5D
$GPGSA,A,3,21,02,03,16,07,08,11,12,,,,,1.98,1.17,1.60*0B
$GPGSV,2,1,08,02,11,322,47,03,55,224,47,07,60,307,47,08,27,112,47*7E
$GPGSV,2,2,08,11,37,254,47,12,50,057,47,16,61,115,47,21,11,054,47*75
$GPGLL,4503.91796,N,00739.54017,E,150657.00,A,A*61
$GPGRS,150657.00,1,0.4,-0.4,0.1,-0.1,0.1,0.1,0.1,0.2,,,,*4D
$GPGST,150657.00,4.5,,,,0.88,0.53,1.4*7B
$GPZDA,150657.00,20,05,2014,00,00*66
$GPGBS,150657.00,0.9,0.5,1.4,,,,*48
$PUBX,00,150657.00,4503.91796,N,00739.54017,E,323.634,G3,1.0,1.4,0.005,0.00,0.001,,1.17,1.60,1.08,8,0,0*6A
$PUBX,03,08,2,U,322,11,47,064,3,U,224,55,47,064,7,U,307,60,47,064,8,U,112,27,47,064,11,U,254,37,47,064,12,U,057,50,47,064,16,U,115,61,47,064,21,U,054,11,47,064*1C
$PUBX,04,150657.00,200514,227217.00,1793,15D,-993818,-26.978,21*67
$GPDTM,W84,,0.0,N,0.0,E,0.0,W84*6F
$GPRMC,150658.00,A,4503.91795,N,00739.54017,E,0.003,,200514,,,A*75
$GPVTG,,T,,M,0.003,N,0.005,K,A*25
$GPGGA,150658.00,4503.91795,N,00739.54017,E,1,08,1.17,276.4,M,47.2,M,,*51
$GPGSA,A,3,21,02,03,16,07,08,11,12,,,,,1.98,1.17,1.60*0B
$GPGSV,2,1,08,02,11,322,47,03,55,224,47,07,60,307,47,08,27,112,47*7E
$GPGSV,2,2,08,11,37,254,47,12,50,057,47,16,61,115,47,21,11,054,47*75
$GPGLL,4503.91795,N,00739.54017,E,150658.00,A,A*6D
$GPGRS,150658.00,1,0.0,-0.3,0.4,-0.2,0.1,0.2,0.4,0.2,,,,*41
$GPGST,150658.00,4.5,,,,0.88,0.52,1.4*75
$GPZDA,150658.00,20,05,2014,00,00*69
$GPGBS,150658.00,0.9,0.5,1.4,,,,*47
$PUBX,00,150658.00,4503.91795,N,00739.54017,E,323.631,G3,1.0,1.4,0.005,0.00,-0.012,,1.17,1.60,1.08,8,0,0*4C
$PUBX,03,08,2,U,322,11,47,064,3,U,224,55,47,064,7,U,307,60,47,064,8,U,112,27,47,064,11,U,254,37,47,064,12,U,057,50,47,064,16,U,115,61,47,064,21,U,054,11,47,064*1C
$PUBX,04,150658.00,200514,227218.00,1793,15D,-993846,-27.137,21*6E
$GPDTM,W84,,0.0,N,0.0,E,0.0,W84*6F
$GPRMC,150659.00,A,4503.91795,N,00739.54017,E,0.011,,200514,,,A*77
$GPVTG,,T,,M,0.011,N,0.021,K,A*20
$GPGGA,150659.00,4503.91795,N,00739.54017,E,1,08,1.17,276.4,M,47.2,M,,*50
$GPGSA,A,3,21,02,03,16,07,08,11,12,,,,,1.98,1.17,1.60*0B
$GPGSV,2,1,08,02,11,322,47,03,55,224,47,07,60,307,47,08,27,112,47*7E
$GPGSV,2,2,08,11,37,254,47,12,50,057,47,16,61,115,47,21,11,054,47*75
$GPGLL,4503.91795,N,00739.54017,E,150659.00,A,A*6C
$GPGRS,150659.00,1,0.5,-0.5,-0.1,-0.3,0.1,0.2,0.7,0.3,,,,*68
$GPGST,150659.00,4.5,,,,0.88,0.52,1.4*74
$GPZDA,150659.00,20,05,2014,00,00*68
$GPGBS,150659.00,0.9,0.5,1.4,,,,*46
$PUBX,00,150659.00,4503.91795,N,00739.54017,E,323.623,G3,1.0,1.4,0.021,0.00,-0.010,,1.17,1.60,1.08,8,0,0*4A
$PUBX,03,08,2,U,322,11,47,064,3,U,224,55,47,064,7,U,307,60,47,064,8,U,112,27,47,064,11,U,254,37,47,064,12,U,057,50,47,064,16,U,115,61,47,064,21,U,054,11,47,064*1C
$PUBX,04,150659.00,200514,227219.00,1793,15D,-993873,-27.240,21*6B
$GPDTM,W84,,0.0,N,0.0,E,0.0,W84*6F
$GPRMC,150700.00,A,4503.91795,N,00739.54016,E,0.008,,200514,,,A*73
$GPVTG,,T,,M,0.008,N,0.014,K,A*2E
$GPGGA,150700.00,4503.91795,N,00739.54016,E,1,08,1.17,276.4,M,47.2,M,,*5C
$GPGSA,A,3,21,02,03,16,07,08,11,12,,,,,1.98,1.17,1.60*0B
$GPGSV,2,1,08,02,11,322,47,03,55,224,47,07,60,307,47,08,27,112,47*7E
$GPGSV,2,2,08,11,37,254,47,12,50,057,47,16,61,115,47,21,11,054,47*75
$GPGLL,4503.91795,N,00739.54016,E,150700.00,A,A*60
$GPGRS,150700.00,1,0.1,-0.6,-0.2,-0.4,0.3,0.1,0.7,0.1,,,,*65
$GPGST,150700.00,4.5,,,,0.88,0.52,1.4*79
$GPZDA,150700.00,20,05,2014,00,00*65
$GPGBS,150700.00,0.9,0.5,1.4,,,,*4B
$PUBX,00,150700.00,4503.91795,N,00739.54016,E,323.613,G3,1.0,1.4,0.014,0.00,-0.002,,1.17,1.60,1.08,8,0,0*40
$PUBX,03,08,2,U,322,11,47,064,3,U,224,55,47,064,7,U,307,60,47,064,8,U,112,27,47,064,11,U,254,37,47,064,12,U,057,50,47,064,16,U,115,61,47,064,21,U,054,11,47,064*1C
$PUBX,04,150700.00,200514,227220.00,1793,15D,-993900,-27.316,21*6B
$GPDTM,W84,,0.0,N,0.0,E,0.0,W84*6F
$GPRMC,150701.00,A,4503.91795,N,00739.54016,E,0.003,,200514,,,A*79
$GPVTG,,T,,M,0.003,N,0.005,K,A*25
$GPGGA,150701.00,4503.91795,N,00739.54016,E,1,08,1.17,276.4,M,47.2,M,,*5D
$GPGSA,A,3,21,02,03,16,07,08,11,12,,,,,1.98,1.17,1.60*0B
$GPGSV,2,1,08,02,11,322,47,03,55,224,47,07,60,307,47,08,27,112,47*7E
$GPGSV,2,2,08,11,37,254,47,12,50,057,47,16,61,115,47,21,11,054,47*75
$GPGLL,4503.91795,N,00739.54016,E,150701.00,A,A*61
$GPGRS,150701.00,1,0.1,-0.4,0.1,-0.2,0.2,0.1,0.5,0.2,,,,*4E
$GPGST,150701.00,4.5,,,,0.88,0.52,1.4*78
$GPZDA,150701.00,20,05,2014,00,00*64
$GPGBS,150701.00,0.9,0.5,1.4,,,,*4A
$PUBX,00,150701.00,4503.91795,N,00739.54016,E,323.616,G3,1.0,1.4,0.005,0.00,-0.001,,1.17,1.60,1.08,8,0,0*47
$PUBX,03,08,2,U,322,11,47,064,3,U,224,55,47,064,7,U,307,60,47,064,8,U,112,27,47,064,11,U,254,37,47,064,12,U,057,50,47,064,16,U,115,61,47,064,21,U,054,11,47,064*1C
$PUBX,04,150701.00,200514,227221.00,1793,15D,-993928,-27.302,21*64
$GPDTM,W84,,0.0,N,0.0,E,0.0,W84*6F
$GPRMC,150702.00,A,4503.91795,N,00739.54015,E,0.007,,200514,,,A*7D
$GPVTG,,T,,M,0.007,N,0.013,K,A*26
$GPGGA,150702.00,4503.91795,N,00739.54015,E,1,08,1.17,276.4,M,47.2,M,,*5D
$GPGSA,A,3,21,02,03,16,07,08,11,12,,,,,1.98,1.17,1.60*0B
$GPGSV,2,1,08,02,11,322,47,03,55,224,47,07,60,307,47,08,27,112,47*7E
$GPGSV,2,2,08,11,37,254,47,12,50,057,47,16,61,115,47,21,11,054,47*75
$GPGLL,4503.91795,N,00739.54015,E,150702.00,A,A*61
$GPGRS,150702.00,1,0.2,-0.7,0.1,-0.2,-0.1,-0.1,0.8,0.5,,,,*44
$GPGST,150702.00,4.5,,,,0.88,0.52,1.4*7B
$GPZDA,150702.00,20,05,2014,00,00*67
$GPGBS,150702.00,0.9,0.5,1.4,,,,*49
$PUBX,00,150702.00,4503.91795,N,00739.54015,E,323.616,G3,1.0,1.4,0.013,0.00,-0.008,,1.17,1.60,1.08,8,0,0*49
$PUBX,03,08,2,U,322,11,47,064,3,U,224,55,47,064,7,U,307,60,47,064,8,U,112,27,47,064,11,U,254,37,47,064,12,U,057,50,47,064,16,U,115,61,47,064,21,U,054,11,47,064*1C
$PUBX,04,150702.00,200514,227222.00,1793,15D,-993955,-27.395,21*60
